{"type":"FeatureCollection","features":[{"geometry":{"type":"Point","coordinates":[102.0725,21.559167]},"type":"Feature","properties":{"LAT":"21.559167","SHORT_FORM":"","LONG":"102.0725","FULL_NAME_RO":"Sam Lang"}},{"geometry":{"type":"Point","coordinates":[102.0725,21.559167]},"type":"Feature","properties":{"LAT":"21.559167","SHORT_FORM":"","LONG":"102.0725","FULL_NAME_RO":"Ban Samlang"}},{"geometry":{"type":"Point","coordinates":[103.283333,19.283333]},"type":"Feature","properties":{"LAT":"19.283333","SHORT_FORM":"","LONG":"103.283333","FULL_NAME_RO":"Mong Sang"}},{"geometry":{"type":"Point","coordinates":[103.283333,19.283333]},"type":"Feature","properties":{"LAT":"19.283333","SHORT_FORM":"","LONG":"103.283333","FULL_NAME_RO":"Muang Xang"}},{"geometry":{"type":"Point","coordinates":[103.85,19.85]},"type":"Feature","properties":{"LAT":"19.85","SHORT_FORM":"","LONG":"103.85","FULL_NAME_RO":"Muang Xamtong"}},{"geometry":{"type":"Point","coordinates":[103.85,19.85]},"type":"Feature","properties":{"LAT":"19.85","SHORT_FORM":"","LONG":"103.85","FULL_NAME_RO":"Sam Tong"}},{"geometry":{"type":"Point","coordinates":[103.85,19.85]},"type":"Feature","properties":{"LAT":"19.85","SHORT_FORM":"","LONG":"103.85","FULL_NAME_RO":"Ban San Thong"}},{"geometry":{"type":"Point","coordinates":[103.85,19.85]},"type":"Feature","properties":{"LAT":"19.85","SHORT_FORM":"","LONG":"103.85","FULL_NAME_RO":"Ban Sam Thong"}},{"geometry":{"type":"Point","coordinates":[103.85,19.85]},"type":"Feature","properties":{"LAT":"19.85","SHORT_FORM":"","LONG":"103.85","FULL_NAME_RO":"Sam Thong"}},{"geometry":{"type":"Point","coordinates":[103.033333,19.416667]},"type":"Feature","properties":{"LAT":"19.416667","SHORT_FORM":"","LONG":"103.033333","FULL_NAME_RO":"Ban Thang"}},{"geometry":{"type":"Point","coordinates":[103.6,19.583333]},"type":"Feature","properties":{"LAT":"19.583333","SHORT_FORM":"","LONG":"103.6","FULL_NAME_RO":"Ban Tat Noy"}},{"geometry":{"type":"Point","coordinates":[103.6,19.583333]},"type":"Feature","properties":{"LAT":"19.583333","SHORT_FORM":"","LONG":"103.6","FULL_NAME_RO":"Ban Ta Noi"}},{"geometry":{"type":"Point","coordinates":[103.583333,19.583333]},"type":"Feature","properties":{"LAT":"19.583333","SHORT_FORM":"","LONG":"103.583333","FULL_NAME_RO":"Ban Tat"}},{"geometry":{"type":"Point","coordinates":[103.583333,19.583333]},"type":"Feature","properties":{"LAT":"19.583333","SHORT_FORM":"","LONG":"103.583333","FULL_NAME_RO":"Ban Tat Louang"}},{"geometry":{"type":"Point","coordinates":[104.35,20.6]},"type":"Feature","properties":{"LAT":"20.6","SHORT_FORM":"","LONG":"104.35","FULL_NAME_RO":"Ban Tat Kouang"}},{"geometry":{"type":"Point","coordinates":[105.181389,16.946111]},"type":"Feature","properties":{"LAT":"16.946111","SHORT_FORM":"","LONG":"105.181389","FULL_NAME_RO":"Ban That Kha Deng"}},{"geometry":{"type":"Point","coordinates":[105.181389,16.946111]},"type":"Feature","properties":{"LAT":"16.946111","SHORT_FORM":"","LONG":"105.181389","FULL_NAME_RO":"Ban Tatkhad\u00e9ng"}},{"geometry":{"type":"Point","coordinates":[104.2,20.683333]},"type":"Feature","properties":{"LAT":"20.683333","SHORT_FORM":"","LONG":"104.2","FULL_NAME_RO":"Ban Tat"}},{"geometry":{"type":"Point","coordinates":[104.45,19.783333]},"type":"Feature","properties":{"LAT":"19.783333","SHORT_FORM":"","LONG":"104.45","FULL_NAME_RO":"K\u00e8olin"}},{"geometry":{"type":"Point","coordinates":[103.966667,20.35]},"type":"Feature","properties":{"LAT":"20.35","SHORT_FORM":"","LONG":"103.966667","FULL_NAME_RO":"Ban Thoon"}},{"geometry":{"type":"Point","coordinates":[103.966667,20.35]},"type":"Feature","properties":{"LAT":"20.35","SHORT_FORM":"","LONG":"103.966667","FULL_NAME_RO":"Ban Thoun"}},{"geometry":{"type":"Point","coordinates":[103.416667,19.316667]},"type":"Feature","properties":{"LAT":"19.316667","SHORT_FORM":"","LONG":"103.416667","FULL_NAME_RO":"Ban Thoum"}},{"geometry":{"type":"Point","coordinates":[103.163611,19.6925]},"type":"Feature","properties":{"LAT":"19.6925","SHORT_FORM":"","LONG":"103.163611","FULL_NAME_RO":"Ban Th\u00f4t"}},{"geometry":{"type":"Point","coordinates":[103.163611,19.6925]},"type":"Feature","properties":{"LAT":"19.6925","SHORT_FORM":"","LONG":"103.163611","FULL_NAME_RO":"Ban Thol"}},{"geometry":{"type":"Point","coordinates":[105.833333,14.85]},"type":"Feature","properties":{"LAT":"14.85","SHORT_FORM":"","LONG":"105.833333","FULL_NAME_RO":"Ban Thong Thanh"}},{"geometry":{"type":"Point","coordinates":[105.833333,14.85]},"type":"Feature","properties":{"LAT":"14.85","SHORT_FORM":"","LONG":"105.833333","FULL_NAME_RO":"Ban Th\u00f4ngthan"}},{"geometry":{"type":"Point","coordinates":[101.718889,22.392778]},"type":"Feature","properties":{"LAT":"22.392778","SHORT_FORM":"","LONG":"101.718889","FULL_NAME_RO":"Houay Ping"}},{"geometry":{"type":"Point","coordinates":[101.718889,22.392778]},"type":"Feature","properties":{"LAT":"22.392778","SHORT_FORM":"","LONG":"101.718889","FULL_NAME_RO":"Ban Houayping"}},{"geometry":{"type":"Point","coordinates":[102.394444,20.942778]},"type":"Feature","properties":{"LAT":"20.942778","SHORT_FORM":"","LONG":"102.394444","FULL_NAME_RO":"Houay Pieng"}},{"geometry":{"type":"Point","coordinates":[102.394444,20.942778]},"type":"Feature","properties":{"LAT":"20.942778","SHORT_FORM":"","LONG":"102.394444","FULL_NAME_RO":"Ban Houayphiang"}},{"geometry":{"type":"Point","coordinates":[102.792222,21.111944]},"type":"Feature","properties":{"LAT":"21.111944","SHORT_FORM":"","LONG":"102.792222","FULL_NAME_RO":"Ban Houaygnan"}},{"geometry":{"type":"Point","coordinates":[102.792222,21.111944]},"type":"Feature","properties":{"LAT":"21.111944","SHORT_FORM":"","LONG":"102.792222","FULL_NAME_RO":"Houay Nhan"}},{"geometry":{"type":"Point","coordinates":[102.792222,21.111944]},"type":"Feature","properties":{"LAT":"21.111944","SHORT_FORM":"","LONG":"102.792222","FULL_NAME_RO":"Tao No"}},{"geometry":{"type":"Point","coordinates":[103.4,19.4]},"type":"Feature","properties":{"LAT":"19.4","SHORT_FORM":"","LONG":"103.4","FULL_NAME_RO":"Houei He"}},{"geometry":{"type":"Point","coordinates":[103.4,19.4]},"type":"Feature","properties":{"LAT":"19.4","SHORT_FORM":"","LONG":"103.4","FULL_NAME_RO":"Houay N\u00e8"}},{"geometry":{"type":"Point","coordinates":[105.866667,14.883333]},"type":"Feature","properties":{"LAT":"14.883333","SHORT_FORM":"","LONG":"105.866667","FULL_NAME_RO":"Bassac"}},{"geometry":{"type":"Point","coordinates":[105.866667,14.883333]},"type":"Feature","properties":{"LAT":"14.883333","SHORT_FORM":"","LONG":"105.866667","FULL_NAME_RO":"Champassac"}},{"geometry":{"type":"Point","coordinates":[105.866667,14.883333]},"type":"Feature","properties":{"LAT":"14.883333","SHORT_FORM":"","LONG":"105.866667","FULL_NAME_RO":"Champasak"}},{"geometry":{"type":"Point","coordinates":[105.866667,14.883333]},"type":"Feature","properties":{"LAT":"14.883333","SHORT_FORM":"","LONG":"105.866667","FULL_NAME_RO":"Bassak"}},{"geometry":{"type":"Point","coordinates":[105.866667,14.883333]},"type":"Feature","properties":{"LAT":"14.883333","SHORT_FORM":"","LONG":"105.866667","FULL_NAME_RO":"Basak"}},{"geometry":{"type":"Point","coordinates":[105.866667,14.883333]},"type":"Feature","properties":{"LAT":"14.883333","SHORT_FORM":"","LONG":"105.866667","FULL_NAME_RO":"Champassak"}},{"geometry":{"type":"Point","coordinates":[103.9,19.233333]},"type":"Feature","properties":{"LAT":"19.233333","SHORT_FORM":"","LONG":"103.9","FULL_NAME_RO":"Ban Namkhaohou"}},{"geometry":{"type":"Point","coordinates":[105.866667,14.816667]},"type":"Feature","properties":{"LAT":"14.816667","SHORT_FORM":"","LONG":"105.866667","FULL_NAME_RO":"Ban Nonglouang"}},{"geometry":{"type":"Point","coordinates":[103.666667,19.383333]},"type":"Feature","properties":{"LAT":"19.383333","SHORT_FORM":"","LONG":"103.666667","FULL_NAME_RO":"Ban Nongla"}},{"geometry":{"type":"Point","coordinates":[104.233333,20.416667]},"type":"Feature","properties":{"LAT":"20.416667","SHORT_FORM":"","LONG":"104.233333","FULL_NAME_RO":"Ban Nong Kou"}},{"geometry":{"type":"Point","coordinates":[103.883333,20.183333]},"type":"Feature","properties":{"LAT":"20.183333","SHORT_FORM":"","LONG":"103.883333","FULL_NAME_RO":"Ban Ph\u00e9n"}},{"geometry":{"type":"Point","coordinates":[103.975278,20.853611]},"type":"Feature","properties":{"LAT":"20.853611","SHORT_FORM":"","LONG":"103.975278","FULL_NAME_RO":"Ban Ph\u00e8"}},{"geometry":{"type":"Point","coordinates":[104.566667,19.866667]},"type":"Feature","properties":{"LAT":"19.866667","SHORT_FORM":"","LONG":"104.566667","FULL_NAME_RO":"Ban Namong"}},{"geometry":{"type":"Point","coordinates":[104.130278,20.8975]},"type":"Feature","properties":{"LAT":"20.8975","SHORT_FORM":"","LONG":"104.130278","FULL_NAME_RO":"Ban Namon"}},{"geometry":{"type":"Point","coordinates":[103.316667,19.633333]},"type":"Feature","properties":{"LAT":"19.633333","SHORT_FORM":"","LONG":"103.316667","FULL_NAME_RO":"Ban Namon"}},{"geometry":{"type":"Point","coordinates":[103.166667,19.466667]},"type":"Feature","properties":{"LAT":"19.466667","SHORT_FORM":"","LONG":"103.166667","FULL_NAME_RO":"Ban Namon"}},{"geometry":{"type":"Point","coordinates":[102.561944,20.278056]},"type":"Feature","properties":{"LAT":"20.278056","SHORT_FORM":"","LONG":"102.561944","FULL_NAME_RO":"Ban S\u00e8n"}},{"geometry":{"type":"Point","coordinates":[103.066667,19.616667]},"type":"Feature","properties":{"LAT":"19.616667","SHORT_FORM":"","LONG":"103.066667","FULL_NAME_RO":"Ban S\u00e8n"}},{"geometry":{"type":"Point","coordinates":[104.383333,20.383333]},"type":"Feature","properties":{"LAT":"20.383333","SHORT_FORM":"","LONG":"104.383333","FULL_NAME_RO":"Ban Nong"}},{"geometry":{"type":"Point","coordinates":[103.216667,19.533333]},"type":"Feature","properties":{"LAT":"19.533333","SHORT_FORM":"","LONG":"103.216667","FULL_NAME_RO":"Ban Nong"}},{"geometry":{"type":"Point","coordinates":[101.261944,17.928889]},"type":"Feature","properties":{"LAT":"17.928889","SHORT_FORM":"","LONG":"101.261944","FULL_NAME_RO":"Ban Nong"}},{"geometry":{"type":"Point","coordinates":[103.611389,19.621111]},"type":"Feature","properties":{"LAT":"19.621111","SHORT_FORM":"","LONG":"103.611389","FULL_NAME_RO":"Ban N\u00f4n"}},{"geometry":{"type":"Point","coordinates":[103.611389,19.621111]},"type":"Feature","properties":{"LAT":"19.621111","SHORT_FORM":"","LONG":"103.611389","FULL_NAME_RO":"Ban Nongbon"}},{"geometry":{"type":"Point","coordinates":[102.866667,19.533333]},"type":"Feature","properties":{"LAT":"19.533333","SHORT_FORM":"","LONG":"102.866667","FULL_NAME_RO":"Ban N\u00f4k"}},{"geometry":{"type":"Point","coordinates":[103.95,19.783333]},"type":"Feature","properties":{"LAT":"19.783333","SHORT_FORM":"","LONG":"103.95","FULL_NAME_RO":"Ban No"}},{"geometry":{"type":"Point","coordinates":[105.833333,14.766667]},"type":"Feature","properties":{"LAT":"14.766667","SHORT_FORM":"","LONG":"105.833333","FULL_NAME_RO":"Ban N\u00f4"}},{"geometry":{"type":"Point","coordinates":[103.65,19.6]},"type":"Feature","properties":{"LAT":"19.6","SHORT_FORM":"","LONG":"103.65","FULL_NAME_RO":"Ban Niang"}},{"geometry":{"type":"Point","coordinates":[103.65,19.6]},"type":"Feature","properties":{"LAT":"19.6","SHORT_FORM":"","LONG":"103.65","FULL_NAME_RO":"Ban Nieng"}},{"geometry":{"type":"Point","coordinates":[107.112222,15.237778]},"type":"Feature","properties":{"LAT":"15.237778","SHORT_FORM":"","LONG":"107.112222","FULL_NAME_RO":"Ban Priat"}},{"geometry":{"type":"Point","coordinates":[107.112222,15.237778]},"type":"Feature","properties":{"LAT":"15.237778","SHORT_FORM":"","LONG":"107.112222","FULL_NAME_RO":"Ban Pliat"}},{"geometry":{"type":"Point","coordinates":[107.112222,15.237778]},"type":"Feature","properties":{"LAT":"15.237778","SHORT_FORM":"","LONG":"107.112222","FULL_NAME_RO":"Ban Priet"}},{"geometry":{"type":"Point","coordinates":[103.966667,19.983333]},"type":"Feature","properties":{"LAT":"19.983333","SHORT_FORM":"","LONG":"103.966667","FULL_NAME_RO":"Ban Ph\u00f4"}},{"geometry":{"type":"Point","coordinates":[103.733333,19.233333]},"type":"Feature","properties":{"LAT":"19.233333","SHORT_FORM":"","LONG":"103.733333","FULL_NAME_RO":"Ban Namchong"}},{"geometry":{"type":"Point","coordinates":[102.718056,19.486111]},"type":"Feature","properties":{"LAT":"19.486111","SHORT_FORM":"","LONG":"102.718056","FULL_NAME_RO":"Nam Tiat"}},{"geometry":{"type":"Point","coordinates":[102.718056,19.486111]},"type":"Feature","properties":{"LAT":"19.486111","SHORT_FORM":"","LONG":"102.718056","FULL_NAME_RO":"Ban Namchat"}},{"geometry":{"type":"Point","coordinates":[103.55,19.633333]},"type":"Feature","properties":{"LAT":"19.633333","SHORT_FORM":"","LONG":"103.55","FULL_NAME_RO":"Ban Nam Bo"}},{"geometry":{"type":"Point","coordinates":[103.123333,19.460278]},"type":"Feature","properties":{"LAT":"19.460278","SHORT_FORM":"","LONG":"103.123333","FULL_NAME_RO":"Ban Na Mai"}},{"geometry":{"type":"Point","coordinates":[103.123333,19.460278]},"type":"Feature","properties":{"LAT":"19.460278","SHORT_FORM":"","LONG":"103.123333","FULL_NAME_RO":"Ban Namay"}},{"geometry":{"type":"Point","coordinates":[103.123333,19.460278]},"type":"Feature","properties":{"LAT":"19.460278","SHORT_FORM":"","LONG":"103.123333","FULL_NAME_RO":"Ban Mai"}},{"geometry":{"type":"Point","coordinates":[107.116667,14.566667]},"type":"Feature","properties":{"LAT":"14.566667","SHORT_FORM":"","LONG":"107.116667","FULL_NAME_RO":"Ban Na Ma Vong Noi"}},{"geometry":{"type":"Point","coordinates":[107.116667,14.566667]},"type":"Feature","properties":{"LAT":"14.566667","SHORT_FORM":"","LONG":"107.116667","FULL_NAME_RO":"Ban Namav\u00f4ng Noy"}},{"geometry":{"type":"Point","coordinates":[103.116667,19.283333]},"type":"Feature","properties":{"LAT":"19.283333","SHORT_FORM":"","LONG":"103.116667","FULL_NAME_RO":"Ban Na Manh"}},{"geometry":{"type":"Point","coordinates":[103.116667,19.283333]},"type":"Feature","properties":{"LAT":"19.283333","SHORT_FORM":"Ban Naman","LONG":"103.116667","FULL_NAME_RO":"Ban Naman (2)"}},{"geometry":{"type":"Point","coordinates":[103.133333,19.283333]},"type":"Feature","properties":{"LAT":"19.283333","SHORT_FORM":"","LONG":"103.133333","FULL_NAME_RO":"Ban Na Manh"}},{"geometry":{"type":"Point","coordinates":[103.133333,19.283333]},"type":"Feature","properties":{"LAT":"19.283333","SHORT_FORM":"Ban Naman","LONG":"103.133333","FULL_NAME_RO":"Ban Naman (1)"}},{"geometry":{"type":"Point","coordinates":[104.6,20.3]},"type":"Feature","properties":{"LAT":"20.3","SHORT_FORM":"","LONG":"104.6","FULL_NAME_RO":"Ban Na Mang"}},{"geometry":{"type":"Point","coordinates":[102.365833,19.990833]},"type":"Feature","properties":{"LAT":"19.990833","SHORT_FORM":"","LONG":"102.365833","FULL_NAME_RO":"Ban Phad\u00e8ng"}},{"geometry":{"type":"Point","coordinates":[105.8,15.05]},"type":"Feature","properties":{"LAT":"15.05","SHORT_FORM":"","LONG":"105.8","FULL_NAME_RO":"Ban Nava"}},{"geometry":{"type":"Point","coordinates":[103.966667,20.583333]},"type":"Feature","properties":{"LAT":"20.583333","SHORT_FORM":"","LONG":"103.966667","FULL_NAME_RO":"Ban Na Tou"}},{"geometry":{"type":"Point","coordinates":[101.749444,20.933611]},"type":"Feature","properties":{"LAT":"20.933611","SHORT_FORM":"","LONG":"101.749444","FULL_NAME_RO":"Ban Na Toung"}},{"geometry":{"type":"Point","coordinates":[101.749444,20.933611]},"type":"Feature","properties":{"LAT":"20.933611","SHORT_FORM":"","LONG":"101.749444","FULL_NAME_RO":"Ban Natong"}},{"geometry":{"type":"Point","coordinates":[102.866667,19.616667]},"type":"Feature","properties":{"LAT":"19.616667","SHORT_FORM":"","LONG":"102.866667","FULL_NAME_RO":"Ban Phaphang"}},{"geometry":{"type":"Point","coordinates":[104.1,20.375278]},"type":"Feature","properties":{"LAT":"20.375278","SHORT_FORM":"","LONG":"104.1","FULL_NAME_RO":"Ban Phapat"}},{"geometry":{"type":"Point","coordinates":[103.877778,20.1525]},"type":"Feature","properties":{"LAT":"20.1525","SHORT_FORM":"","LONG":"103.877778","FULL_NAME_RO":"Ban Phao"}},{"geometry":{"type":"Point","coordinates":[103.877778,20.1525]},"type":"Feature","properties":{"LAT":"20.1525","SHORT_FORM":"","LONG":"103.877778","FULL_NAME_RO":"Ban Khang Ma"}},{"geometry":{"type":"Point","coordinates":[103.877778,20.1525]},"type":"Feature","properties":{"LAT":"20.1525","SHORT_FORM":"","LONG":"103.877778","FULL_NAME_RO":"Ban Th\u00f4ngphao"}},{"geometry":{"type":"Point","coordinates":[106.4775,16.513889]},"type":"Feature","properties":{"LAT":"16.513889","SHORT_FORM":"","LONG":"106.4775","FULL_NAME_RO":"Tam Pan Ko"}},{"geometry":{"type":"Point","coordinates":[106.4775,16.513889]},"type":"Feature","properties":{"LAT":"16.513889","SHORT_FORM":"","LONG":"106.4775","FULL_NAME_RO":"Tam Luong Noi"}},{"geometry":{"type":"Point","coordinates":[106.4775,16.513889]},"type":"Feature","properties":{"LAT":"16.513889","SHORT_FORM":"","LONG":"106.4775","FULL_NAME_RO":"Ban Tampank\u00f4"}},{"geometry":{"type":"Point","coordinates":[106.495833,16.551111]},"type":"Feature","properties":{"LAT":"16.551111","SHORT_FORM":"","LONG":"106.495833","FULL_NAME_RO":"Tam Pan Hoo"}},{"geometry":{"type":"Point","coordinates":[106.495833,16.551111]},"type":"Feature","properties":{"LAT":"16.551111","SHORT_FORM":"","LONG":"106.495833","FULL_NAME_RO":"Ban Tampanhop"}},{"geometry":{"type":"Point","coordinates":[106.733333,14.783333]},"type":"Feature","properties":{"LAT":"14.783333","SHORT_FORM":"","LONG":"106.733333","FULL_NAME_RO":"Ban Tam Ma Lieu Tay"}},{"geometry":{"type":"Point","coordinates":[106.733333,14.783333]},"type":"Feature","properties":{"LAT":"14.783333","SHORT_FORM":"","LONG":"106.733333","FULL_NAME_RO":"Ban Tammaleuy Tai"}},{"geometry":{"type":"Point","coordinates":[106.75,14.8]},"type":"Feature","properties":{"LAT":"14.8","SHORT_FORM":"","LONG":"106.75","FULL_NAME_RO":"Ban Tammaleuy Nua"}},{"geometry":{"type":"Point","coordinates":[106.75,14.8]},"type":"Feature","properties":{"LAT":"14.8","SHORT_FORM":"","LONG":"106.75","FULL_NAME_RO":"Ban Tam Ma Leui Neua"}},{"geometry":{"type":"Point","coordinates":[101.249167,20.598889]},"type":"Feature","properties":{"LAT":"20.598889","SHORT_FORM":"","LONG":"101.249167","FULL_NAME_RO":"Ban Ta Luong"}},{"geometry":{"type":"Point","coordinates":[101.249167,20.598889]},"type":"Feature","properties":{"LAT":"20.598889","SHORT_FORM":"","LONG":"101.249167","FULL_NAME_RO":"Ban Tal\u00f4ng-Nua"}},{"geometry":{"type":"Point","coordinates":[103.283333,19.233333]},"type":"Feature","properties":{"LAT":"19.233333","SHORT_FORM":"","LONG":"103.283333","FULL_NAME_RO":"Ban Nam Sap"}},{"geometry":{"type":"Point","coordinates":[103.283333,19.233333]},"type":"Feature","properties":{"LAT":"19.233333","SHORT_FORM":"","LONG":"103.283333","FULL_NAME_RO":"Ban Nasap"}},{"geometry":{"type":"Point","coordinates":[104.683333,20.166667]},"type":"Feature","properties":{"LAT":"20.166667","SHORT_FORM":"","LONG":"104.683333","FULL_NAME_RO":"Ban Pou"}},{"geometry":{"type":"Point","coordinates":[103.641667,19.410833]},"type":"Feature","properties":{"LAT":"19.410833","SHORT_FORM":"","LONG":"103.641667","FULL_NAME_RO":"Pha Boun"}},{"geometry":{"type":"Point","coordinates":[103.641667,19.410833]},"type":"Feature","properties":{"LAT":"19.410833","SHORT_FORM":"","LONG":"103.641667","FULL_NAME_RO":"Ban Phaboun"}},{"geometry":{"type":"Point","coordinates":[105.866667,14.883333]},"type":"Feature","properties":{"LAT":"14.883333","SHORT_FORM":"","LONG":"105.866667","FULL_NAME_RO":"Ban Phabang"}},{"geometry":{"type":"Point","coordinates":[103.25,19.166667]},"type":"Feature","properties":{"LAT":"19.166667","SHORT_FORM":"","LONG":"103.25","FULL_NAME_RO":"Ban Pha"}},{"geometry":{"type":"Point","coordinates":[103.266667,19.616667]},"type":"Feature","properties":{"LAT":"19.616667","SHORT_FORM":"","LONG":"103.266667","FULL_NAME_RO":"Ban Peuy"}},{"geometry":{"type":"Point","coordinates":[103.266667,19.616667]},"type":"Feature","properties":{"LAT":"19.616667","SHORT_FORM":"","LONG":"103.266667","FULL_NAME_RO":"Ban Peui"}},{"geometry":{"type":"Point","coordinates":[104.7,19.9]},"type":"Feature","properties":{"LAT":"19.9","SHORT_FORM":"","LONG":"104.7","FULL_NAME_RO":"Ban Sop Sane"}},{"geometry":{"type":"Point","coordinates":[104.7,19.9]},"type":"Feature","properties":{"LAT":"19.9","SHORT_FORM":"","LONG":"104.7","FULL_NAME_RO":"Ban S\u00f4pxan"}},{"geometry":{"type":"Point","coordinates":[104.632222,19.979167]},"type":"Feature","properties":{"LAT":"19.979167","SHORT_FORM":"","LONG":"104.632222","FULL_NAME_RO":"Ban Sop Sa"}},{"geometry":{"type":"Point","coordinates":[104.632222,19.979167]},"type":"Feature","properties":{"LAT":"19.979167","SHORT_FORM":"","LONG":"104.632222","FULL_NAME_RO":"Ban S\u00f4pxa"}},{"geometry":{"type":"Point","coordinates":[104.083889,20.848889]},"type":"Feature","properties":{"LAT":"20.848889","SHORT_FORM":"","LONG":"104.083889","FULL_NAME_RO":"Sop San"}},{"geometry":{"type":"Point","coordinates":[104.083889,20.848889]},"type":"Feature","properties":{"LAT":"20.848889","SHORT_FORM":"","LONG":"104.083889","FULL_NAME_RO":"Ban S\u00f4psan"}},{"geometry":{"type":"Point","coordinates":[104.132778,20.027778]},"type":"Feature","properties":{"LAT":"20.027778","SHORT_FORM":"","LONG":"104.132778","FULL_NAME_RO":"Ban S\u00f4ppouang"}},{"geometry":{"type":"Point","coordinates":[106.65,14.683333]},"type":"Feature","properties":{"LAT":"14.683333","SHORT_FORM":"","LONG":"106.65","FULL_NAME_RO":"Ban Ouktay"}},{"geometry":{"type":"Point","coordinates":[106.65,14.683333]},"type":"Feature","properties":{"LAT":"14.683333","SHORT_FORM":"","LONG":"106.65","FULL_NAME_RO":"Ban Ouk Tai"}},{"geometry":{"type":"Point","coordinates":[101.977778,19.778333]},"type":"Feature","properties":{"LAT":"19.778333","SHORT_FORM":"","LONG":"101.977778","FULL_NAME_RO":"Ban Ou"}},{"geometry":{"type":"Point","coordinates":[101.977778,19.778333]},"type":"Feature","properties":{"LAT":"19.778333","SHORT_FORM":"","LONG":"101.977778","FULL_NAME_RO":"Ban Hou"}},{"geometry":{"type":"Point","coordinates":[107.216667,14.716667]},"type":"Feature","properties":{"LAT":"14.716667","SHORT_FORM":"","LONG":"107.216667","FULL_NAME_RO":"Ban \u00d4nglouang"}},{"geometry":{"type":"Point","coordinates":[103.316667,19.583333]},"type":"Feature","properties":{"LAT":"19.583333","SHORT_FORM":"","LONG":"103.316667","FULL_NAME_RO":"Muong Peck"}},{"geometry":{"type":"Point","coordinates":[103.316667,19.583333]},"type":"Feature","properties":{"LAT":"19.583333","SHORT_FORM":"","LONG":"103.316667","FULL_NAME_RO":"Muong Bek"}},{"geometry":{"type":"Point","coordinates":[103.316667,19.583333]},"type":"Feature","properties":{"LAT":"19.583333","SHORT_FORM":"","LONG":"103.316667","FULL_NAME_RO":"Ban Khay"}},{"geometry":{"type":"Point","coordinates":[103.316667,19.583333]},"type":"Feature","properties":{"LAT":"19.583333","SHORT_FORM":"","LONG":"103.316667","FULL_NAME_RO":"Muang Pek"}},{"geometry":{"type":"Point","coordinates":[103.316667,19.583333]},"type":"Feature","properties":{"LAT":"19.583333","SHORT_FORM":"","LONG":"103.316667","FULL_NAME_RO":"Muong Pek"}},{"geometry":{"type":"Point","coordinates":[103.0,19.333333]},"type":"Feature","properties":{"LAT":"19.333333","SHORT_FORM":"","LONG":"103","FULL_NAME_RO":"Muong Pang"}},{"geometry":{"type":"Point","coordinates":[103.0,19.333333]},"type":"Feature","properties":{"LAT":"19.333333","SHORT_FORM":"","LONG":"103","FULL_NAME_RO":"Muang Pang"}},{"geometry":{"type":"Point","coordinates":[104.174167,20.521944]},"type":"Feature","properties":{"LAT":"20.521944","SHORT_FORM":"","LONG":"104.174167","FULL_NAME_RO":"Muong Pane"}},{"geometry":{"type":"Point","coordinates":[104.174167,20.521944]},"type":"Feature","properties":{"LAT":"20.521944","SHORT_FORM":"","LONG":"104.174167","FULL_NAME_RO":"Muong Pan"}},{"geometry":{"type":"Point","coordinates":[104.174167,20.521944]},"type":"Feature","properties":{"LAT":"20.521944","SHORT_FORM":"","LONG":"104.174167","FULL_NAME_RO":"Muang Pan"}},{"geometry":{"type":"Point","coordinates":[104.174167,20.521944]},"type":"Feature","properties":{"LAT":"20.521944","SHORT_FORM":"","LONG":"104.174167","FULL_NAME_RO":"Ban Muangpan"}},{"geometry":{"type":"Point","coordinates":[101.135833,19.8925]},"type":"Feature","properties":{"LAT":"19.8925","SHORT_FORM":"","LONG":"101.135833","FULL_NAME_RO":"Pak Beng"}},{"geometry":{"type":"Point","coordinates":[101.135833,19.8925]},"type":"Feature","properties":{"LAT":"19.8925","SHORT_FORM":"","LONG":"101.135833","FULL_NAME_RO":"Muong Pak Beng"}},{"geometry":{"type":"Point","coordinates":[101.135833,19.8925]},"type":"Feature","properties":{"LAT":"19.8925","SHORT_FORM":"","LONG":"101.135833","FULL_NAME_RO":"Muang Pakb\u00e8ng"}},{"geometry":{"type":"Point","coordinates":[101.6,18.55]},"type":"Feature","properties":{"LAT":"18.55","SHORT_FORM":"","LONG":"101.6","FULL_NAME_RO":"Muong Pa"}},{"geometry":{"type":"Point","coordinates":[101.6,18.55]},"type":"Feature","properties":{"LAT":"18.55","SHORT_FORM":"","LONG":"101.6","FULL_NAME_RO":"Muang Pa"}},{"geometry":{"type":"Point","coordinates":[101.794722,22.295833]},"type":"Feature","properties":{"LAT":"22.295833","SHORT_FORM":"","LONG":"101.794722","FULL_NAME_RO":"Muong Hou Neva"}},{"geometry":{"type":"Point","coordinates":[101.794722,22.295833]},"type":"Feature","properties":{"LAT":"22.295833","SHORT_FORM":"","LONG":"101.794722","FULL_NAME_RO":"Muongkhoua"}},{"geometry":{"type":"Point","coordinates":[101.794722,22.295833]},"type":"Feature","properties":{"LAT":"22.295833","SHORT_FORM":"","LONG":"101.794722","FULL_NAME_RO":"Muong Hu"}},{"geometry":{"type":"Point","coordinates":[101.794722,22.295833]},"type":"Feature","properties":{"LAT":"22.295833","SHORT_FORM":"","LONG":"101.794722","FULL_NAME_RO":"Muang Ou Nua"}},{"geometry":{"type":"Point","coordinates":[101.794722,22.295833]},"type":"Feature","properties":{"LAT":"22.295833","SHORT_FORM":"","LONG":"101.794722","FULL_NAME_RO":"Houn-neua"}},{"geometry":{"type":"Point","coordinates":[101.794722,22.295833]},"type":"Feature","properties":{"LAT":"22.295833","SHORT_FORM":"","LONG":"101.794722","FULL_NAME_RO":"Ho Nua"}},{"geometry":{"type":"Point","coordinates":[101.794722,22.295833]},"type":"Feature","properties":{"LAT":"22.295833","SHORT_FORM":"","LONG":"101.794722","FULL_NAME_RO":"Unua"}},{"geometry":{"type":"Point","coordinates":[101.794722,22.295833]},"type":"Feature","properties":{"LAT":"22.295833","SHORT_FORM":"","LONG":"101.794722","FULL_NAME_RO":"Muong Ou Neva"}},{"geometry":{"type":"Point","coordinates":[101.794722,22.295833]},"type":"Feature","properties":{"LAT":"22.295833","SHORT_FORM":"","LONG":"101.794722","FULL_NAME_RO":"Muong Ou Neua"}},{"geometry":{"type":"Point","coordinates":[101.794722,22.295833]},"type":"Feature","properties":{"LAT":"22.295833","SHORT_FORM":"","LONG":"101.794722","FULL_NAME_RO":"Ounua"}},{"geometry":{"type":"Point","coordinates":[101.794722,22.295833]},"type":"Feature","properties":{"LAT":"22.295833","SHORT_FORM":"","LONG":"101.794722","FULL_NAME_RO":"Muong Hou Neua"}},{"geometry":{"type":"Point","coordinates":[101.794722,22.295833]},"type":"Feature","properties":{"LAT":"22.295833","SHORT_FORM":"","LONG":"101.794722","FULL_NAME_RO":"Ban Muang-Ou-Nua"}},{"geometry":{"type":"Point","coordinates":[101.794722,22.295833]},"type":"Feature","properties":{"LAT":"22.295833","SHORT_FORM":"","LONG":"101.794722","FULL_NAME_RO":"Muong Hou Nua"}},{"geometry":{"type":"Point","coordinates":[101.794722,22.295833]},"type":"Feature","properties":{"LAT":"22.295833","SHORT_FORM":"","LONG":"101.794722","FULL_NAME_RO":"Ou Neua"}},{"geometry":{"type":"Point","coordinates":[101.794722,22.295833]},"type":"Feature","properties":{"LAT":"22.295833","SHORT_FORM":"","LONG":"101.794722","FULL_NAME_RO":"Muang Ou Neua"}},{"geometry":{"type":"Point","coordinates":[101.75,19.25]},"type":"Feature","properties":{"LAT":"19.25","SHORT_FORM":"","LONG":"101.75","FULL_NAME_RO":"Muong Sayaboury"}},{"geometry":{"type":"Point","coordinates":[101.75,19.25]},"type":"Feature","properties":{"LAT":"19.25","SHORT_FORM":"","LONG":"101.75","FULL_NAME_RO":"Muong Samaboury"}},{"geometry":{"type":"Point","coordinates":[101.75,19.25]},"type":"Feature","properties":{"LAT":"19.25","SHORT_FORM":"","LONG":"101.75","FULL_NAME_RO":"Muang Xaignabouri"}},{"geometry":{"type":"Point","coordinates":[101.75,19.25]},"type":"Feature","properties":{"LAT":"19.25","SHORT_FORM":"","LONG":"101.75","FULL_NAME_RO":"Sayaboury"}},{"geometry":{"type":"Point","coordinates":[101.75,19.25]},"type":"Feature","properties":{"LAT":"19.25","SHORT_FORM":"","LONG":"101.75","FULL_NAME_RO":"Saniabouri"}},{"geometry":{"type":"Point","coordinates":[101.75,19.25]},"type":"Feature","properties":{"LAT":"19.25","SHORT_FORM":"","LONG":"101.75","FULL_NAME_RO":"Ban Samaboury"}},{"geometry":{"type":"Point","coordinates":[101.75,19.25]},"type":"Feature","properties":{"LAT":"19.25","SHORT_FORM":"","LONG":"101.75","FULL_NAME_RO":"Xaignabouli"}},{"geometry":{"type":"Point","coordinates":[101.75,19.25]},"type":"Feature","properties":{"LAT":"19.25","SHORT_FORM":"","LONG":"101.75","FULL_NAME_RO":"Xaignabouri"}},{"geometry":{"type":"Point","coordinates":[101.738889,22.351944]},"type":"Feature","properties":{"LAT":"22.351944","SHORT_FORM":"","LONG":"101.738889","FULL_NAME_RO":"Bo Youm"}},{"geometry":{"type":"Point","coordinates":[101.738889,22.351944]},"type":"Feature","properties":{"LAT":"22.351944","SHORT_FORM":"","LONG":"101.738889","FULL_NAME_RO":"Ban Boyoum"}},{"geometry":{"type":"Point","coordinates":[103.333333,19.766667]},"type":"Feature","properties":{"LAT":"19.766667","SHORT_FORM":"","LONG":"103.333333","FULL_NAME_RO":"Bouam L\u00f4ng"}},{"geometry":{"type":"Point","coordinates":[103.333333,19.766667]},"type":"Feature","properties":{"LAT":"19.766667","SHORT_FORM":"","LONG":"103.333333","FULL_NAME_RO":"Bouam Lung"}},{"geometry":{"type":"Point","coordinates":[103.3,19.716667]},"type":"Feature","properties":{"LAT":"19.716667","SHORT_FORM":"","LONG":"103.3","FULL_NAME_RO":"Bouan Lota"}},{"geometry":{"type":"Point","coordinates":[103.3,19.716667]},"type":"Feature","properties":{"LAT":"19.716667","SHORT_FORM":"","LONG":"103.3","FULL_NAME_RO":"Bouam Leta"}},{"geometry":{"type":"Point","coordinates":[104.466667,19.683889]},"type":"Feature","properties":{"LAT":"19.683889","SHORT_FORM":"","LONG":"104.466667","FULL_NAME_RO":"Boum Vay"}},{"geometry":{"type":"Point","coordinates":[104.466667,19.683889]},"type":"Feature","properties":{"LAT":"19.683889","SHORT_FORM":"","LONG":"104.466667","FULL_NAME_RO":"Bouambay"}},{"geometry":{"type":"Point","coordinates":[104.466667,19.683889]},"type":"Feature","properties":{"LAT":"19.683889","SHORT_FORM":"","LONG":"104.466667","FULL_NAME_RO":"Ban Bouambay"}},{"geometry":{"type":"Point","coordinates":[101.623889,22.127778]},"type":"Feature","properties":{"LAT":"22.127778","SHORT_FORM":"","LONG":"101.623889","FULL_NAME_RO":"Si Pha Ti"}},{"geometry":{"type":"Point","coordinates":[101.623889,22.127778]},"type":"Feature","properties":{"LAT":"22.127778","SHORT_FORM":"","LONG":"101.623889","FULL_NAME_RO":"Ban Siphati"}},{"geometry":{"type":"Point","coordinates":[102.852778,20.402222]},"type":"Feature","properties":{"LAT":"20.402222","SHORT_FORM":"","LONG":"102.852778","FULL_NAME_RO":"Ban Tha Vanne"}},{"geometry":{"type":"Point","coordinates":[102.852778,20.402222]},"type":"Feature","properties":{"LAT":"20.402222","SHORT_FORM":"","LONG":"102.852778","FULL_NAME_RO":"Ban Thavan"}},{"geometry":{"type":"Point","coordinates":[102.852778,20.402222]},"type":"Feature","properties":{"LAT":"20.402222","SHORT_FORM":"","LONG":"102.852778","FULL_NAME_RO":"Ban Tha Vane"}},{"geometry":{"type":"Point","coordinates":[107.1,14.7]},"type":"Feature","properties":{"LAT":"14.7","SHORT_FORM":"","LONG":"107.1","FULL_NAME_RO":"Ban Thattamo"}},{"geometry":{"type":"Point","coordinates":[107.1,14.7]},"type":"Feature","properties":{"LAT":"14.7","SHORT_FORM":"","LONG":"107.1","FULL_NAME_RO":"Ban Thak Ta Mo"}},{"geometry":{"type":"Point","coordinates":[105.933333,14.75]},"type":"Feature","properties":{"LAT":"14.75","SHORT_FORM":"","LONG":"105.933333","FULL_NAME_RO":"Ban Thatan"}},{"geometry":{"type":"Point","coordinates":[103.979167,19.975556]},"type":"Feature","properties":{"LAT":"19.975556","SHORT_FORM":"","LONG":"103.979167","FULL_NAME_RO":"Ban That"}},{"geometry":{"type":"Point","coordinates":[103.816667,18.85]},"type":"Feature","properties":{"LAT":"18.85","SHORT_FORM":"","LONG":"103.816667","FULL_NAME_RO":"Ban Thasi"}},{"geometry":{"type":"Point","coordinates":[107.116667,14.616667]},"type":"Feature","properties":{"LAT":"14.616667","SHORT_FORM":"","LONG":"107.116667","FULL_NAME_RO":"Ban Seng Chay"}},{"geometry":{"type":"Point","coordinates":[107.116667,14.616667]},"type":"Feature","properties":{"LAT":"14.616667","SHORT_FORM":"","LONG":"107.116667","FULL_NAME_RO":"Ban S\u00e8nchay"}},{"geometry":{"type":"Point","coordinates":[103.563889,20.555278]},"type":"Feature","properties":{"LAT":"20.555278","SHORT_FORM":"","LONG":"103.563889","FULL_NAME_RO":"Ban Pia Don"}},{"geometry":{"type":"Point","coordinates":[103.563889,20.555278]},"type":"Feature","properties":{"LAT":"20.555278","SHORT_FORM":"","LONG":"103.563889","FULL_NAME_RO":"Ban Phiaton"}},{"geometry":{"type":"Point","coordinates":[103.416667,19.6]},"type":"Feature","properties":{"LAT":"19.6","SHORT_FORM":"","LONG":"103.416667","FULL_NAME_RO":"Ban Phie Si"}},{"geometry":{"type":"Point","coordinates":[103.416667,19.6]},"type":"Feature","properties":{"LAT":"19.6","SHORT_FORM":"","LONG":"103.416667","FULL_NAME_RO":"Ban Phiasi"}},{"geometry":{"type":"Point","coordinates":[102.668611,19.657778]},"type":"Feature","properties":{"LAT":"19.657778","SHORT_FORM":"","LONG":"102.668611","FULL_NAME_RO":"Ban Phla Phu Pen"}},{"geometry":{"type":"Point","coordinates":[102.668611,19.657778]},"type":"Feature","properties":{"LAT":"19.657778","SHORT_FORM":"","LONG":"102.668611","FULL_NAME_RO":"Ban Phia Phu Pen"}},{"geometry":{"type":"Point","coordinates":[102.668611,19.657778]},"type":"Feature","properties":{"LAT":"19.657778","SHORT_FORM":"","LONG":"102.668611","FULL_NAME_RO":"Ban Phiaphophan"}},{"geometry":{"type":"Point","coordinates":[106.983333,14.566667]},"type":"Feature","properties":{"LAT":"14.566667","SHORT_FORM":"","LONG":"106.983333","FULL_NAME_RO":"Ban Phianong"}},{"geometry":{"type":"Point","coordinates":[103.883333,19.883333]},"type":"Feature","properties":{"LAT":"19.883333","SHORT_FORM":"","LONG":"103.883333","FULL_NAME_RO":"Ban Phieng Ma\u00ef"}},{"geometry":{"type":"Point","coordinates":[103.883333,19.883333]},"type":"Feature","properties":{"LAT":"19.883333","SHORT_FORM":"","LONG":"103.883333","FULL_NAME_RO":"Ban Phiangmay"}},{"geometry":{"type":"Point","coordinates":[103.071111,19.526667]},"type":"Feature","properties":{"LAT":"19.526667","SHORT_FORM":"","LONG":"103.071111","FULL_NAME_RO":"Ban Phien Luong"}},{"geometry":{"type":"Point","coordinates":[103.071111,19.526667]},"type":"Feature","properties":{"LAT":"19.526667","SHORT_FORM":"","LONG":"103.071111","FULL_NAME_RO":"Ban Phianglouang"}},{"geometry":{"type":"Point","coordinates":[104.243056,20.209167]},"type":"Feature","properties":{"LAT":"20.209167","SHORT_FORM":"","LONG":"104.243056","FULL_NAME_RO":"Ban Pieng"}},{"geometry":{"type":"Point","coordinates":[104.243056,20.209167]},"type":"Feature","properties":{"LAT":"20.209167","SHORT_FORM":"","LONG":"104.243056","FULL_NAME_RO":"Ban Phiang"}},{"geometry":{"type":"Point","coordinates":[101.675278,22.36]},"type":"Feature","properties":{"LAT":"22.36","SHORT_FORM":"","LONG":"101.675278","FULL_NAME_RO":"Khao Kheu Ching"}},{"geometry":{"type":"Point","coordinates":[101.675278,22.36]},"type":"Feature","properties":{"LAT":"22.36","SHORT_FORM":"","LONG":"101.675278","FULL_NAME_RO":"Kha Kheu Ching"}},{"geometry":{"type":"Point","coordinates":[101.675278,22.36]},"type":"Feature","properties":{"LAT":"22.36","SHORT_FORM":"","LONG":"101.675278","FULL_NAME_RO":"Ban Khaokheuching"}},{"geometry":{"type":"Point","coordinates":[105.8,14.816667]},"type":"Feature","properties":{"LAT":"14.816667","SHORT_FORM":"","LONG":"105.8","FULL_NAME_RO":"Ban Nong Done"}},{"geometry":{"type":"Point","coordinates":[105.8,14.816667]},"type":"Feature","properties":{"LAT":"14.816667","SHORT_FORM":"","LONG":"105.8","FULL_NAME_RO":"Ban Nongd\u00f4n"}},{"geometry":{"type":"Point","coordinates":[105.833333,14.8]},"type":"Feature","properties":{"LAT":"14.8","SHORT_FORM":"","LONG":"105.833333","FULL_NAME_RO":"Ban Nongchan"}},{"geometry":{"type":"Point","coordinates":[105.833333,14.8]},"type":"Feature","properties":{"LAT":"14.8","SHORT_FORM":"","LONG":"105.833333","FULL_NAME_RO":"Ban Nong Chane"}},{"geometry":{"type":"Point","coordinates":[103.852222,19.498056]},"type":"Feature","properties":{"LAT":"19.498056","SHORT_FORM":"","LONG":"103.852222","FULL_NAME_RO":"Ban Pha Luong Nhay"}},{"geometry":{"type":"Point","coordinates":[103.852222,19.498056]},"type":"Feature","properties":{"LAT":"19.498056","SHORT_FORM":"","LONG":"103.852222","FULL_NAME_RO":"Ban Phalouang Gnai"}},{"geometry":{"type":"Point","coordinates":[103.852222,19.498056]},"type":"Feature","properties":{"LAT":"19.498056","SHORT_FORM":"","LONG":"103.852222","FULL_NAME_RO":"Ban Phalouang"}},{"geometry":{"type":"Point","coordinates":[103.733333,19.483333]},"type":"Feature","properties":{"LAT":"19.483333","SHORT_FORM":"","LONG":"103.733333","FULL_NAME_RO":"Ban Pha Luong"}},{"geometry":{"type":"Point","coordinates":[103.733333,19.483333]},"type":"Feature","properties":{"LAT":"19.483333","SHORT_FORM":"","LONG":"103.733333","FULL_NAME_RO":"Ban Phalouang"}},{"geometry":{"type":"Point","coordinates":[103.85,19.183333]},"type":"Feature","properties":{"LAT":"19.183333","SHORT_FORM":"","LONG":"103.85","FULL_NAME_RO":"Nam Keng"}},{"geometry":{"type":"Point","coordinates":[103.85,19.183333]},"type":"Feature","properties":{"LAT":"19.183333","SHORT_FORM":"","LONG":"103.85","FULL_NAME_RO":"Ban Nam Keng"}},{"geometry":{"type":"Point","coordinates":[103.85,19.183333]},"type":"Feature","properties":{"LAT":"19.183333","SHORT_FORM":"","LONG":"103.85","FULL_NAME_RO":"Ban Namk\u00e9ng Noy"}},{"geometry":{"type":"Point","coordinates":[105.65,17.1]},"type":"Feature","properties":{"LAT":"17.1","SHORT_FORM":"","LONG":"105.65","FULL_NAME_RO":"Ban Namkapo"}},{"geometry":{"type":"Point","coordinates":[101.985833,20.668611]},"type":"Feature","properties":{"LAT":"20.668611","SHORT_FORM":"","LONG":"101.985833","FULL_NAME_RO":"Nami"}},{"geometry":{"type":"Point","coordinates":[101.985833,20.668611]},"type":"Feature","properties":{"LAT":"20.668611","SHORT_FORM":"","LONG":"101.985833","FULL_NAME_RO":"Ban Nami"}},{"geometry":{"type":"Point","coordinates":[103.25,19.616667]},"type":"Feature","properties":{"LAT":"19.616667","SHORT_FORM":"","LONG":"103.25","FULL_NAME_RO":"Ban Nami"}},{"geometry":{"type":"Point","coordinates":[103.2,19.366667]},"type":"Feature","properties":{"LAT":"19.366667","SHORT_FORM":"","LONG":"103.2","FULL_NAME_RO":"Ban Nami"}},{"geometry":{"type":"Point","coordinates":[103.741389,20.167778]},"type":"Feature","properties":{"LAT":"20.167778","SHORT_FORM":"","LONG":"103.741389","FULL_NAME_RO":"Ban Naxay"}},{"geometry":{"type":"Point","coordinates":[103.741389,20.167778]},"type":"Feature","properties":{"LAT":"20.167778","SHORT_FORM":"","LONG":"103.741389","FULL_NAME_RO":"Ban Na Sai"}},{"geometry":{"type":"Point","coordinates":[103.741389,20.167778]},"type":"Feature","properties":{"LAT":"20.167778","SHORT_FORM":"","LONG":"103.741389","FULL_NAME_RO":"Ban Naxai"}},{"geometry":{"type":"Point","coordinates":[103.116667,19.616667]},"type":"Feature","properties":{"LAT":"19.616667","SHORT_FORM":"","LONG":"103.116667","FULL_NAME_RO":"Ban Naxay"}},{"geometry":{"type":"Point","coordinates":[103.116667,19.616667]},"type":"Feature","properties":{"LAT":"19.616667","SHORT_FORM":"","LONG":"103.116667","FULL_NAME_RO":"Ban Na Sai"}},{"geometry":{"type":"Point","coordinates":[103.066667,19.366667]},"type":"Feature","properties":{"LAT":"19.366667","SHORT_FORM":"","LONG":"103.066667","FULL_NAME_RO":"Ban Na Sai"}},{"geometry":{"type":"Point","coordinates":[103.066667,19.366667]},"type":"Feature","properties":{"LAT":"19.366667","SHORT_FORM":"","LONG":"103.066667","FULL_NAME_RO":"Ban Naxay"}},{"geometry":{"type":"Point","coordinates":[102.531389,18.075]},"type":"Feature","properties":{"LAT":"18.075","SHORT_FORM":"","LONG":"102.531389","FULL_NAME_RO":"Ban Kout Na Sai"}},{"geometry":{"type":"Point","coordinates":[102.531389,18.075]},"type":"Feature","properties":{"LAT":"18.075","SHORT_FORM":"","LONG":"102.531389","FULL_NAME_RO":"Ban Naxay"}},{"geometry":{"type":"Point","coordinates":[102.531389,18.075]},"type":"Feature","properties":{"LAT":"18.075","SHORT_FORM":"","LONG":"102.531389","FULL_NAME_RO":"Ban Na Say"}},{"geometry":{"type":"Point","coordinates":[104.45,19.8]},"type":"Feature","properties":{"LAT":"19.8","SHORT_FORM":"","LONG":"104.45","FULL_NAME_RO":"Ban Na Sam"}},{"geometry":{"type":"Point","coordinates":[104.45,19.8]},"type":"Feature","properties":{"LAT":"19.8","SHORT_FORM":"","LONG":"104.45","FULL_NAME_RO":"Ban Naxam"}},{"geometry":{"type":"Point","coordinates":[104.053611,20.411944]},"type":"Feature","properties":{"LAT":"20.411944","SHORT_FORM":"","LONG":"104.053611","FULL_NAME_RO":"Ban Na Vieng"}},{"geometry":{"type":"Point","coordinates":[104.053611,20.411944]},"type":"Feature","properties":{"LAT":"20.411944","SHORT_FORM":"","LONG":"104.053611","FULL_NAME_RO":"Ban Naviang"}},{"geometry":{"type":"Point","coordinates":[104.05,20.383333]},"type":"Feature","properties":{"LAT":"20.383333","SHORT_FORM":"","LONG":"104.05","FULL_NAME_RO":"Ban Pom Luong"}},{"geometry":{"type":"Point","coordinates":[102.511389,20.015278]},"type":"Feature","properties":{"LAT":"20.015278","SHORT_FORM":"","LONG":"102.511389","FULL_NAME_RO":"Ban Phatoup-Gnai"}},{"geometry":{"type":"Point","coordinates":[102.511389,20.015278]},"type":"Feature","properties":{"LAT":"20.015278","SHORT_FORM":"","LONG":"102.511389","FULL_NAME_RO":"Ban Pha Toup"}},{"geometry":{"type":"Point","coordinates":[102.511389,20.015278]},"type":"Feature","properties":{"LAT":"20.015278","SHORT_FORM":"","LONG":"102.511389","FULL_NAME_RO":"Pha Toup"}},{"geometry":{"type":"Point","coordinates":[102.139167,19.8675]},"type":"Feature","properties":{"LAT":"19.8675","SHORT_FORM":"","LONG":"102.139167","FULL_NAME_RO":"Ban Nalouang"}},{"geometry":{"type":"Point","coordinates":[102.139167,19.8675]},"type":"Feature","properties":{"LAT":"19.8675","SHORT_FORM":"","LONG":"102.139167","FULL_NAME_RO":"Ban Na Louong"}},{"geometry":{"type":"Point","coordinates":[101.737778,22.083889]},"type":"Feature","properties":{"LAT":"22.083889","SHORT_FORM":"","LONG":"101.737778","FULL_NAME_RO":"Ban Na Long"}},{"geometry":{"type":"Point","coordinates":[101.737778,22.083889]},"type":"Feature","properties":{"LAT":"22.083889","SHORT_FORM":"","LONG":"101.737778","FULL_NAME_RO":"Ban Ngong-Nua"}},{"geometry":{"type":"Point","coordinates":[103.083333,19.283333]},"type":"Feature","properties":{"LAT":"19.283333","SHORT_FORM":"","LONG":"103.083333","FULL_NAME_RO":"Ban Nalong"}},{"geometry":{"type":"Point","coordinates":[103.4,19.333333]},"type":"Feature","properties":{"LAT":"19.333333","SHORT_FORM":"","LONG":"103.4","FULL_NAME_RO":"Ban Na Line"}},{"geometry":{"type":"Point","coordinates":[103.4,19.333333]},"type":"Feature","properties":{"LAT":"19.333333","SHORT_FORM":"","LONG":"103.4","FULL_NAME_RO":"Ban Nalin"}},{"geometry":{"type":"Point","coordinates":[101.968056,20.671944]},"type":"Feature","properties":{"LAT":"20.671944","SHORT_FORM":"","LONG":"101.968056","FULL_NAME_RO":"Nale"}},{"geometry":{"type":"Point","coordinates":[101.968056,20.671944]},"type":"Feature","properties":{"LAT":"20.671944","SHORT_FORM":"","LONG":"101.968056","FULL_NAME_RO":"Ban Nal\u00e8"}},{"geometry":{"type":"Point","coordinates":[103.15,19.366667]},"type":"Feature","properties":{"LAT":"19.366667","SHORT_FORM":"","LONG":"103.15","FULL_NAME_RO":"Ban Nal\u00e8"}},{"geometry":{"type":"Point","coordinates":[102.277778,19.931944]},"type":"Feature","properties":{"LAT":"19.931944","SHORT_FORM":"","LONG":"102.277778","FULL_NAME_RO":"Ban Natan"}},{"geometry":{"type":"Point","coordinates":[101.683333,19.316667]},"type":"Feature","properties":{"LAT":"19.316667","SHORT_FORM":"","LONG":"101.683333","FULL_NAME_RO":"Ban Na Tak"}},{"geometry":{"type":"Point","coordinates":[106.7,14.733333]},"type":"Feature","properties":{"LAT":"14.733333","SHORT_FORM":"","LONG":"106.7","FULL_NAME_RO":"Ban Pouy"}},{"geometry":{"type":"Point","coordinates":[106.7,14.733333]},"type":"Feature","properties":{"LAT":"14.733333","SHORT_FORM":"","LONG":"106.7","FULL_NAME_RO":"Ban Phouy"}},{"geometry":{"type":"Point","coordinates":[103.566667,19.3]},"type":"Feature","properties":{"LAT":"19.3","SHORT_FORM":"","LONG":"103.566667","FULL_NAME_RO":"Ban Pec H\u00e9"}},{"geometry":{"type":"Point","coordinates":[103.566667,19.3]},"type":"Feature","properties":{"LAT":"19.3","SHORT_FORM":"","LONG":"103.566667","FULL_NAME_RO":"Ban Pae He"}},{"geometry":{"type":"Point","coordinates":[103.566667,19.3]},"type":"Feature","properties":{"LAT":"19.3","SHORT_FORM":"","LONG":"103.566667","FULL_NAME_RO":"Ban Phak-H\u00e8"}},{"geometry":{"type":"Point","coordinates":[103.483333,19.25]},"type":"Feature","properties":{"LAT":"19.25","SHORT_FORM":"","LONG":"103.483333","FULL_NAME_RO":"Ban Phak-Hai"}},{"geometry":{"type":"Point","coordinates":[103.706389,20.122778]},"type":"Feature","properties":{"LAT":"20.122778","SHORT_FORM":"","LONG":"103.706389","FULL_NAME_RO":"Ban Phakgna"}},{"geometry":{"type":"Point","coordinates":[107.0525,15.028611]},"type":"Feature","properties":{"LAT":"15.028611","SHORT_FORM":"","LONG":"107.0525","FULL_NAME_RO":"Ban Talian"}},{"geometry":{"type":"Point","coordinates":[107.0525,15.028611]},"type":"Feature","properties":{"LAT":"15.028611","SHORT_FORM":"","LONG":"107.0525","FULL_NAME_RO":"Ban Talia"}},{"geometry":{"type":"Point","coordinates":[106.161667,17.1575]},"type":"Feature","properties":{"LAT":"17.1575","SHORT_FORM":"","LONG":"106.161667","FULL_NAME_RO":"Ban Tal\u00e9k-Alam"}},{"geometry":{"type":"Point","coordinates":[106.161667,17.1575]},"type":"Feature","properties":{"LAT":"17.1575","SHORT_FORM":"","LONG":"106.161667","FULL_NAME_RO":"Ban Khoaym\u00e8p"}},{"geometry":{"type":"Point","coordinates":[101.833333,19.333333]},"type":"Feature","properties":{"LAT":"19.333333","SHORT_FORM":"","LONG":"101.833333","FULL_NAME_RO":"Ban Talan"}},{"geometry":{"type":"Point","coordinates":[107.466667,15.066667]},"type":"Feature","properties":{"LAT":"15.066667","SHORT_FORM":"","LONG":"107.466667","FULL_NAME_RO":"Ta Oa"}},{"geometry":{"type":"Point","coordinates":[107.466667,15.066667]},"type":"Feature","properties":{"LAT":"15.066667","SHORT_FORM":"","LONG":"107.466667","FULL_NAME_RO":"Ban Tala"}},{"geometry":{"type":"Point","coordinates":[107.466667,15.066667]},"type":"Feature","properties":{"LAT":"15.066667","SHORT_FORM":"","LONG":"107.466667","FULL_NAME_RO":"Ta La"}},{"geometry":{"type":"Point","coordinates":[106.816667,15.133333]},"type":"Feature","properties":{"LAT":"15.133333","SHORT_FORM":"","LONG":"106.816667","FULL_NAME_RO":"Pak Bong"}},{"geometry":{"type":"Point","coordinates":[106.816667,15.133333]},"type":"Feature","properties":{"LAT":"15.133333","SHORT_FORM":"","LONG":"106.816667","FULL_NAME_RO":"Ban Pat Bong"}},{"geometry":{"type":"Point","coordinates":[106.816667,15.133333]},"type":"Feature","properties":{"LAT":"15.133333","SHORT_FORM":"","LONG":"106.816667","FULL_NAME_RO":"Ban Pakb\u00f4ng"}},{"geometry":{"type":"Point","coordinates":[103.0375,19.365]},"type":"Feature","properties":{"LAT":"19.365","SHORT_FORM":"","LONG":"103.0375","FULL_NAME_RO":"Ban Poun Sai"}},{"geometry":{"type":"Point","coordinates":[103.0375,19.365]},"type":"Feature","properties":{"LAT":"19.365","SHORT_FORM":"","LONG":"103.0375","FULL_NAME_RO":"Ban Phouxay"}},{"geometry":{"type":"Point","coordinates":[103.0375,19.365]},"type":"Feature","properties":{"LAT":"19.365","SHORT_FORM":"","LONG":"103.0375","FULL_NAME_RO":"Ban Ph\u00f4nxai"}},{"geometry":{"type":"Point","coordinates":[102.825833,20.226111]},"type":"Feature","properties":{"LAT":"20.226111","SHORT_FORM":"","LONG":"102.825833","FULL_NAME_RO":"Ban Phouviang"}},{"geometry":{"type":"Point","coordinates":[102.825833,20.226111]},"type":"Feature","properties":{"LAT":"20.226111","SHORT_FORM":"","LONG":"102.825833","FULL_NAME_RO":"Ban Phou Vieng"}},{"geometry":{"type":"Point","coordinates":[101.716389,20.861389]},"type":"Feature","properties":{"LAT":"20.861389","SHORT_FORM":"","LONG":"101.716389","FULL_NAME_RO":"Ban Pou Tong"}},{"geometry":{"type":"Point","coordinates":[101.716389,20.861389]},"type":"Feature","properties":{"LAT":"20.861389","SHORT_FORM":"","LONG":"101.716389","FULL_NAME_RO":"Ban Poun Tong"}},{"geometry":{"type":"Point","coordinates":[101.716389,20.861389]},"type":"Feature","properties":{"LAT":"20.861389","SHORT_FORM":"","LONG":"101.716389","FULL_NAME_RO":"Ban Phouthong"}},{"geometry":{"type":"Point","coordinates":[101.716389,20.861389]},"type":"Feature","properties":{"LAT":"20.861389","SHORT_FORM":"","LONG":"101.716389","FULL_NAME_RO":"Ban Phou Tong"}},{"geometry":{"type":"Point","coordinates":[104.195,20.658056]},"type":"Feature","properties":{"LAT":"20.658056","SHORT_FORM":"","LONG":"104.195","FULL_NAME_RO":"Ban Phouth\u00e9ng"}},{"geometry":{"type":"Point","coordinates":[104.333333,20.583333]},"type":"Feature","properties":{"LAT":"20.583333","SHORT_FORM":"","LONG":"104.333333","FULL_NAME_RO":"Ban Phou Th\u00e9ng"}},{"geometry":{"type":"Point","coordinates":[106.153333,17.008889]},"type":"Feature","properties":{"LAT":"17.008889","SHORT_FORM":"","LONG":"106.153333","FULL_NAME_RO":"Ban Phoutaphum"}},{"geometry":{"type":"Point","coordinates":[103.783333,19.583333]},"type":"Feature","properties":{"LAT":"19.583333","SHORT_FORM":"","LONG":"103.783333","FULL_NAME_RO":"Ban Paloy"}},{"geometry":{"type":"Point","coordinates":[100.890833,20.468056]},"type":"Feature","properties":{"LAT":"20.468056","SHORT_FORM":"","LONG":"100.890833","FULL_NAME_RO":"Ban Sod"}},{"geometry":{"type":"Point","coordinates":[100.890833,20.468056]},"type":"Feature","properties":{"LAT":"20.468056","SHORT_FORM":"","LONG":"100.890833","FULL_NAME_RO":"Ban Sot"}},{"geometry":{"type":"Point","coordinates":[102.983333,19.583333]},"type":"Feature","properties":{"LAT":"19.583333","SHORT_FORM":"","LONG":"102.983333","FULL_NAME_RO":"Ban S\u00f4"}},{"geometry":{"type":"Point","coordinates":[103.183333,19.533333]},"type":"Feature","properties":{"LAT":"19.533333","SHORT_FORM":"Ban Si","LONG":"103.183333","FULL_NAME_RO":"Ban Si (2)"}},{"geometry":{"type":"Point","coordinates":[103.216667,19.583333]},"type":"Feature","properties":{"LAT":"19.583333","SHORT_FORM":"Ban Si","LONG":"103.216667","FULL_NAME_RO":"Ban Si (1)"}},{"geometry":{"type":"Point","coordinates":[104.676389,19.99]},"type":"Feature","properties":{"LAT":"19.99","SHORT_FORM":"","LONG":"104.676389","FULL_NAME_RO":"Na Sang"}},{"geometry":{"type":"Point","coordinates":[104.676389,19.99]},"type":"Feature","properties":{"LAT":"19.99","SHORT_FORM":"","LONG":"104.676389","FULL_NAME_RO":"Ban Nasang"}},{"geometry":{"type":"Point","coordinates":[104.066667,20.866667]},"type":"Feature","properties":{"LAT":"20.866667","SHORT_FORM":"","LONG":"104.066667","FULL_NAME_RO":"Ban Na San"}},{"geometry":{"type":"Point","coordinates":[104.017222,20.158056]},"type":"Feature","properties":{"LAT":"20.158056","SHORT_FORM":"","LONG":"104.017222","FULL_NAME_RO":"Ban Nasam\u00f4ng"}},{"geometry":{"type":"Point","coordinates":[106.126111,17.015833]},"type":"Feature","properties":{"LAT":"17.015833","SHORT_FORM":"","LONG":"106.126111","FULL_NAME_RO":"Ban Namphay"}},{"geometry":{"type":"Point","coordinates":[102.491944,19.613333]},"type":"Feature","properties":{"LAT":"19.613333","SHORT_FORM":"Ban S\u00e8npan-Gna","LONG":"102.491944","FULL_NAME_RO":"Ban S\u00e8npan-Gna (1)"}},{"geometry":{"type":"Point","coordinates":[102.491944,19.613333]},"type":"Feature","properties":{"LAT":"19.613333","SHORT_FORM":"","LONG":"102.491944","FULL_NAME_RO":"Ban S\u00e8npan-Gna"}},{"geometry":{"type":"Point","coordinates":[102.491944,19.613333]},"type":"Feature","properties":{"LAT":"19.613333","SHORT_FORM":"","LONG":"102.491944","FULL_NAME_RO":"Ban S\u00e8n Pan Ya (1)"}},{"geometry":{"type":"Point","coordinates":[102.735833,20.062778]},"type":"Feature","properties":{"LAT":"20.062778","SHORT_FORM":"","LONG":"102.735833","FULL_NAME_RO":"Sen Manivan"}},{"geometry":{"type":"Point","coordinates":[102.735833,20.062778]},"type":"Feature","properties":{"LAT":"20.062778","SHORT_FORM":"","LONG":"102.735833","FULL_NAME_RO":"Ban S\u00e8nmanivan"}},{"geometry":{"type":"Point","coordinates":[101.358333,19.570833]},"type":"Feature","properties":{"LAT":"19.570833","SHORT_FORM":"","LONG":"101.358333","FULL_NAME_RO":"Ban Sen Luong"}},{"geometry":{"type":"Point","coordinates":[101.358333,19.570833]},"type":"Feature","properties":{"LAT":"19.570833","SHORT_FORM":"","LONG":"101.358333","FULL_NAME_RO":"Ban Senluang"}},{"geometry":{"type":"Point","coordinates":[102.1325,19.895833]},"type":"Feature","properties":{"LAT":"19.895833","SHORT_FORM":"","LONG":"102.1325","FULL_NAME_RO":"Xieng Men"}},{"geometry":{"type":"Point","coordinates":[102.1325,19.895833]},"type":"Feature","properties":{"LAT":"19.895833","SHORT_FORM":"","LONG":"102.1325","FULL_NAME_RO":"Xien Men"}},{"geometry":{"type":"Point","coordinates":[102.1325,19.895833]},"type":"Feature","properties":{"LAT":"19.895833","SHORT_FORM":"","LONG":"102.1325","FULL_NAME_RO":"Ban Xiangm\u00e8n"}},{"geometry":{"type":"Point","coordinates":[104.0,18.916667]},"type":"Feature","properties":{"LAT":"18.916667","SHORT_FORM":"","LONG":"104","FULL_NAME_RO":"Xieng Le"}},{"geometry":{"type":"Point","coordinates":[104.316667,20.466667]},"type":"Feature","properties":{"LAT":"20.466667","SHORT_FORM":"","LONG":"104.316667","FULL_NAME_RO":"Xieng K\u00e8ne"}},{"geometry":{"type":"Point","coordinates":[101.834444,21.821111]},"type":"Feature","properties":{"LAT":"21.821111","SHORT_FORM":"","LONG":"101.834444","FULL_NAME_RO":"Xieng Dao"}},{"geometry":{"type":"Point","coordinates":[101.834444,21.821111]},"type":"Feature","properties":{"LAT":"21.821111","SHORT_FORM":"","LONG":"101.834444","FULL_NAME_RO":"Ban Xiangdao"}},{"geometry":{"type":"Point","coordinates":[104.043889,20.419722]},"type":"Feature","properties":{"LAT":"20.419722","SHORT_FORM":"","LONG":"104.043889","FULL_NAME_RO":"Xam Nua"}},{"geometry":{"type":"Point","coordinates":[104.043889,20.419722]},"type":"Feature","properties":{"LAT":"20.419722","SHORT_FORM":"","LONG":"104.043889","FULL_NAME_RO":"Samnua"}},{"geometry":{"type":"Point","coordinates":[104.043889,20.419722]},"type":"Feature","properties":{"LAT":"20.419722","SHORT_FORM":"","LONG":"104.043889","FULL_NAME_RO":"Muang Sam"}},{"geometry":{"type":"Point","coordinates":[104.043889,20.419722]},"type":"Feature","properties":{"LAT":"20.419722","SHORT_FORM":"","LONG":"104.043889","FULL_NAME_RO":"Sammeua"}},{"geometry":{"type":"Point","coordinates":[101.941944,22.301111]},"type":"Feature","properties":{"LAT":"22.301111","SHORT_FORM":"","LONG":"101.941944","FULL_NAME_RO":"Ta K\u00f4 Tchiang"}},{"geometry":{"type":"Point","coordinates":[101.941944,22.301111]},"type":"Feature","properties":{"LAT":"22.301111","SHORT_FORM":"","LONG":"101.941944","FULL_NAME_RO":"Ban Tak\u00f4chiang"}},{"geometry":{"type":"Point","coordinates":[103.036111,20.170278]},"type":"Feature","properties":{"LAT":"20.170278","SHORT_FORM":"","LONG":"103.036111","FULL_NAME_RO":"Pak Teu"}},{"geometry":{"type":"Point","coordinates":[103.036111,20.170278]},"type":"Feature","properties":{"LAT":"20.170278","SHORT_FORM":"","LONG":"103.036111","FULL_NAME_RO":"Ban Paktheu"}},{"geometry":{"type":"Point","coordinates":[102.553889,21.305833]},"type":"Feature","properties":{"LAT":"21.305833","SHORT_FORM":"","LONG":"102.553889","FULL_NAME_RO":"Pak P\u00e9"}},{"geometry":{"type":"Point","coordinates":[102.553889,21.305833]},"type":"Feature","properties":{"LAT":"21.305833","SHORT_FORM":"","LONG":"102.553889","FULL_NAME_RO":"Ban Pakph\u00e8"}},{"geometry":{"type":"Point","coordinates":[102.683333,20.716667]},"type":"Feature","properties":{"LAT":"20.716667","SHORT_FORM":"","LONG":"102.683333","FULL_NAME_RO":"Muang Ngoi"}},{"geometry":{"type":"Point","coordinates":[102.683333,20.716667]},"type":"Feature","properties":{"LAT":"20.716667","SHORT_FORM":"","LONG":"102.683333","FULL_NAME_RO":"Muang Ngoy"}},{"geometry":{"type":"Point","coordinates":[102.683333,20.716667]},"type":"Feature","properties":{"LAT":"20.716667","SHORT_FORM":"","LONG":"102.683333","FULL_NAME_RO":"Muong Ngoi"}},{"geometry":{"type":"Point","coordinates":[103.683333,19.15]},"type":"Feature","properties":{"LAT":"19.15","SHORT_FORM":"","LONG":"103.683333","FULL_NAME_RO":"Muong Ngame"}},{"geometry":{"type":"Point","coordinates":[103.683333,19.15]},"type":"Feature","properties":{"LAT":"19.15","SHORT_FORM":"","LONG":"103.683333","FULL_NAME_RO":"Muang Ngan"}},{"geometry":{"type":"Point","coordinates":[104.181667,20.4325]},"type":"Feature","properties":{"LAT":"20.4325","SHORT_FORM":"","LONG":"104.181667","FULL_NAME_RO":"Muong Nga"}},{"geometry":{"type":"Point","coordinates":[104.181667,20.4325]},"type":"Feature","properties":{"LAT":"20.4325","SHORT_FORM":"","LONG":"104.181667","FULL_NAME_RO":"Muang Nga"}},{"geometry":{"type":"Point","coordinates":[104.181667,20.4325]},"type":"Feature","properties":{"LAT":"20.4325","SHORT_FORM":"","LONG":"104.181667","FULL_NAME_RO":"Ban Muangnga"}},{"geometry":{"type":"Point","coordinates":[101.974167,20.266389]},"type":"Feature","properties":{"LAT":"20.266389","SHORT_FORM":"","LONG":"101.974167","FULL_NAME_RO":"Muang Nga"}},{"geometry":{"type":"Point","coordinates":[101.974167,20.266389]},"type":"Feature","properties":{"LAT":"20.266389","SHORT_FORM":"","LONG":"101.974167","FULL_NAME_RO":"Ban Nga"}},{"geometry":{"type":"Point","coordinates":[101.974167,20.266389]},"type":"Feature","properties":{"LAT":"20.266389","SHORT_FORM":"","LONG":"101.974167","FULL_NAME_RO":"Muong Nga"}},{"geometry":{"type":"Point","coordinates":[104.366667,20.716667]},"type":"Feature","properties":{"LAT":"20.716667","SHORT_FORM":"","LONG":"104.366667","FULL_NAME_RO":"Nam Lat"}},{"geometry":{"type":"Point","coordinates":[102.0125,22.293056]},"type":"Feature","properties":{"LAT":"22.293056","SHORT_FORM":"","LONG":"102.0125","FULL_NAME_RO":"Tong Koua Lin"}},{"geometry":{"type":"Point","coordinates":[102.0125,22.293056]},"type":"Feature","properties":{"LAT":"22.293056","SHORT_FORM":"","LONG":"102.0125","FULL_NAME_RO":"Ban Tongkoualin"}},{"geometry":{"type":"Point","coordinates":[101.642222,22.188611]},"type":"Feature","properties":{"LAT":"22.188611","SHORT_FORM":"","LONG":"101.642222","FULL_NAME_RO":"Tong Koua Lin"}},{"geometry":{"type":"Point","coordinates":[101.642222,22.188611]},"type":"Feature","properties":{"LAT":"22.188611","SHORT_FORM":"","LONG":"101.642222","FULL_NAME_RO":"Ban T\u00f4ngkoualin"}},{"geometry":{"type":"Point","coordinates":[104.622778,19.935556]},"type":"Feature","properties":{"LAT":"19.935556","SHORT_FORM":"","LONG":"104.622778","FULL_NAME_RO":"Ban Nala"}},{"geometry":{"type":"Point","coordinates":[101.533333,19.016667]},"type":"Feature","properties":{"LAT":"19.016667","SHORT_FORM":"","LONG":"101.533333","FULL_NAME_RO":"Ban Na Kun"}},{"geometry":{"type":"Point","coordinates":[104.433333,20.55]},"type":"Feature","properties":{"LAT":"20.55","SHORT_FORM":"","LONG":"104.433333","FULL_NAME_RO":"Ban Na Khoua"}},{"geometry":{"type":"Point","coordinates":[104.433333,20.55]},"type":"Feature","properties":{"LAT":"20.55","SHORT_FORM":"","LONG":"104.433333","FULL_NAME_RO":"Ban Na Koua"}},{"geometry":{"type":"Point","coordinates":[101.566667,18.666667]},"type":"Feature","properties":{"LAT":"18.666667","SHORT_FORM":"","LONG":"101.566667","FULL_NAME_RO":"Ban Na Koua"}},{"geometry":{"type":"Point","coordinates":[103.116667,19.283333]},"type":"Feature","properties":{"LAT":"19.283333","SHORT_FORM":"","LONG":"103.116667","FULL_NAME_RO":"Ban Nath\u00e8ng"}},{"geometry":{"type":"Point","coordinates":[104.186944,20.434167]},"type":"Feature","properties":{"LAT":"20.434167","SHORT_FORM":"","LONG":"104.186944","FULL_NAME_RO":"Na Ten"}},{"geometry":{"type":"Point","coordinates":[104.186944,20.434167]},"type":"Feature","properties":{"LAT":"20.434167","SHORT_FORM":"","LONG":"104.186944","FULL_NAME_RO":"Ban Na Th\u00e8ne"}},{"geometry":{"type":"Point","coordinates":[104.186944,20.434167]},"type":"Feature","properties":{"LAT":"20.434167","SHORT_FORM":"","LONG":"104.186944","FULL_NAME_RO":"Ban Nath\u00e8n"}},{"geometry":{"type":"Point","coordinates":[103.116667,19.55]},"type":"Feature","properties":{"LAT":"19.55","SHORT_FORM":"","LONG":"103.116667","FULL_NAME_RO":"Ban Nathao"}},{"geometry":{"type":"Point","coordinates":[103.116667,19.55]},"type":"Feature","properties":{"LAT":"19.55","SHORT_FORM":"","LONG":"103.116667","FULL_NAME_RO":"Ban Na Thac"}},{"geometry":{"type":"Point","coordinates":[105.733333,15.133333]},"type":"Feature","properties":{"LAT":"15.133333","SHORT_FORM":"","LONG":"105.733333","FULL_NAME_RO":"Ban Phaling"}},{"geometry":{"type":"Point","coordinates":[101.416667,19.633333]},"type":"Feature","properties":{"LAT":"19.633333","SHORT_FORM":"","LONG":"101.416667","FULL_NAME_RO":"Ban Phalanc"}},{"geometry":{"type":"Point","coordinates":[103.8,20.066667]},"type":"Feature","properties":{"LAT":"20.066667","SHORT_FORM":"","LONG":"103.8","FULL_NAME_RO":"Ban Taboup"}},{"geometry":{"type":"Point","coordinates":[104.483333,20.766667]},"type":"Feature","properties":{"LAT":"20.766667","SHORT_FORM":"","LONG":"104.483333","FULL_NAME_RO":"Ban Suoi Bao"}},{"geometry":{"type":"Point","coordinates":[103.25,19.4]},"type":"Feature","properties":{"LAT":"19.4","SHORT_FORM":"","LONG":"103.25","FULL_NAME_RO":"Ban Soun"}},{"geometry":{"type":"Point","coordinates":[103.25,19.4]},"type":"Feature","properties":{"LAT":"19.4","SHORT_FORM":"","LONG":"103.25","FULL_NAME_RO":"Ban Sout"}},{"geometry":{"type":"Point","coordinates":[103.383333,19.566667]},"type":"Feature","properties":{"LAT":"19.566667","SHORT_FORM":"","LONG":"103.383333","FULL_NAME_RO":"Ban Soum"}},{"geometry":{"type":"Point","coordinates":[103.383333,19.566667]},"type":"Feature","properties":{"LAT":"19.566667","SHORT_FORM":"","LONG":"103.383333","FULL_NAME_RO":"Ban Soun"}},{"geometry":{"type":"Point","coordinates":[102.038056,19.864444]},"type":"Feature","properties":{"LAT":"19.864444","SHORT_FORM":"","LONG":"102.038056","FULL_NAME_RO":"Pak Lung"}},{"geometry":{"type":"Point","coordinates":[102.038056,19.864444]},"type":"Feature","properties":{"LAT":"19.864444","SHORT_FORM":"","LONG":"102.038056","FULL_NAME_RO":"Pak Leung"}},{"geometry":{"type":"Point","coordinates":[102.038056,19.864444]},"type":"Feature","properties":{"LAT":"19.864444","SHORT_FORM":"","LONG":"102.038056","FULL_NAME_RO":"Pak Leng"}},{"geometry":{"type":"Point","coordinates":[102.038056,19.864444]},"type":"Feature","properties":{"LAT":"19.864444","SHORT_FORM":"","LONG":"102.038056","FULL_NAME_RO":"Ban Paklung"}},{"geometry":{"type":"Point","coordinates":[102.038056,19.864444]},"type":"Feature","properties":{"LAT":"19.864444","SHORT_FORM":"","LONG":"102.038056","FULL_NAME_RO":"Ban Pak Leung"}},{"geometry":{"type":"Point","coordinates":[103.316667,19.633333]},"type":"Feature","properties":{"LAT":"19.633333","SHORT_FORM":"","LONG":"103.316667","FULL_NAME_RO":"Ban Na Pon"}},{"geometry":{"type":"Point","coordinates":[103.316667,19.633333]},"type":"Feature","properties":{"LAT":"19.633333","SHORT_FORM":"Ban Naph\u00f4n","LONG":"103.316667","FULL_NAME_RO":"Ban Naph\u00f4n (2)"}},{"geometry":{"type":"Point","coordinates":[103.15,19.683333]},"type":"Feature","properties":{"LAT":"19.683333","SHORT_FORM":"","LONG":"103.15","FULL_NAME_RO":"Ban Pom"}},{"geometry":{"type":"Point","coordinates":[104.266667,20.5]},"type":"Feature","properties":{"LAT":"20.5","SHORT_FORM":"","LONG":"104.266667","FULL_NAME_RO":"Ban Poc"}},{"geometry":{"type":"Point","coordinates":[104.25,20.45]},"type":"Feature","properties":{"LAT":"20.45","SHORT_FORM":"","LONG":"104.25","FULL_NAME_RO":"Ban Poc"}},{"geometry":{"type":"Point","coordinates":[102.916667,19.2]},"type":"Feature","properties":{"LAT":"19.2","SHORT_FORM":"","LONG":"102.916667","FULL_NAME_RO":"Ban Poa Ha"}},{"geometry":{"type":"Point","coordinates":[102.916667,19.2]},"type":"Feature","properties":{"LAT":"19.2","SHORT_FORM":"","LONG":"102.916667","FULL_NAME_RO":"Ban Poa Hai"}},{"geometry":{"type":"Point","coordinates":[104.45,20.55]},"type":"Feature","properties":{"LAT":"20.55","SHORT_FORM":"","LONG":"104.45","FULL_NAME_RO":"Ban Po"}},{"geometry":{"type":"Point","coordinates":[103.833333,19.983333]},"type":"Feature","properties":{"LAT":"19.983333","SHORT_FORM":"","LONG":"103.833333","FULL_NAME_RO":"Ban S\u00f4pna"}},{"geometry":{"type":"Point","coordinates":[103.966667,20.35]},"type":"Feature","properties":{"LAT":"20.35","SHORT_FORM":"","LONG":"103.966667","FULL_NAME_RO":"Ban Sop Houay Thong"}},{"geometry":{"type":"Point","coordinates":[103.966667,20.35]},"type":"Feature","properties":{"LAT":"20.35","SHORT_FORM":"","LONG":"103.966667","FULL_NAME_RO":"Ban Sop Houei Thong"}},{"geometry":{"type":"Point","coordinates":[104.683333,19.883333]},"type":"Feature","properties":{"LAT":"19.883333","SHORT_FORM":"","LONG":"104.683333","FULL_NAME_RO":"Ban S\u00f4p-Houan"}},{"geometry":{"type":"Point","coordinates":[104.3575,19.788333]},"type":"Feature","properties":{"LAT":"19.788333","SHORT_FORM":"","LONG":"104.3575","FULL_NAME_RO":"Ban S\u00f4pchoum"}},{"geometry":{"type":"Point","coordinates":[102.618889,19.968611]},"type":"Feature","properties":{"LAT":"19.968611","SHORT_FORM":"","LONG":"102.618889","FULL_NAME_RO":"Ban Sop Tre"}},{"geometry":{"type":"Point","coordinates":[102.618889,19.968611]},"type":"Feature","properties":{"LAT":"19.968611","SHORT_FORM":"","LONG":"102.618889","FULL_NAME_RO":"Ban Sop Tie"}},{"geometry":{"type":"Point","coordinates":[102.618889,19.968611]},"type":"Feature","properties":{"LAT":"19.968611","SHORT_FORM":"","LONG":"102.618889","FULL_NAME_RO":"Ban S\u00f4pch\u00e9"}},{"geometry":{"type":"Point","coordinates":[104.95,16.983333]},"type":"Feature","properties":{"LAT":"16.983333","SHORT_FORM":"","LONG":"104.95","FULL_NAME_RO":"Ban Na Deng"}},{"geometry":{"type":"Point","coordinates":[104.95,16.983333]},"type":"Feature","properties":{"LAT":"16.983333","SHORT_FORM":"Ban N\u00f4nnad\u00e8ng","LONG":"104.95","FULL_NAME_RO":"Ban N\u00f4nnad\u00e8ng (2)"}},{"geometry":{"type":"Point","coordinates":[103.4,19.316667]},"type":"Feature","properties":{"LAT":"19.316667","SHORT_FORM":"","LONG":"103.4","FULL_NAME_RO":"Ban Na Soi"}},{"geometry":{"type":"Point","coordinates":[103.4,19.316667]},"type":"Feature","properties":{"LAT":"19.316667","SHORT_FORM":"","LONG":"103.4","FULL_NAME_RO":"Ban Nasoy"}},{"geometry":{"type":"Point","coordinates":[103.5,19.3]},"type":"Feature","properties":{"LAT":"19.3","SHORT_FORM":"","LONG":"103.5","FULL_NAME_RO":"Ban Pie Tong"}},{"geometry":{"type":"Point","coordinates":[103.5,19.3]},"type":"Feature","properties":{"LAT":"19.3","SHORT_FORM":"","LONG":"103.5","FULL_NAME_RO":"Ban Phot\u00f4ng"}},{"geometry":{"type":"Point","coordinates":[102.358889,19.857222]},"type":"Feature","properties":{"LAT":"19.857222","SHORT_FORM":"","LONG":"102.358889","FULL_NAME_RO":"Ban Phochian"}},{"geometry":{"type":"Point","coordinates":[102.358889,19.857222]},"type":"Feature","properties":{"LAT":"19.857222","SHORT_FORM":"","LONG":"102.358889","FULL_NAME_RO":"Ban Pho Tiane"}},{"geometry":{"type":"Point","coordinates":[100.615,19.805556]},"type":"Feature","properties":{"LAT":"19.805556","SHORT_FORM":"","LONG":"100.615","FULL_NAME_RO":"Pak Khop"}},{"geometry":{"type":"Point","coordinates":[100.615,19.805556]},"type":"Feature","properties":{"LAT":"19.805556","SHORT_FORM":"","LONG":"100.615","FULL_NAME_RO":"Ban Pak Thop"}},{"geometry":{"type":"Point","coordinates":[100.615,19.805556]},"type":"Feature","properties":{"LAT":"19.805556","SHORT_FORM":"","LONG":"100.615","FULL_NAME_RO":"Ban Pak Hop"}},{"geometry":{"type":"Point","coordinates":[100.615,19.805556]},"type":"Feature","properties":{"LAT":"19.805556","SHORT_FORM":"","LONG":"100.615","FULL_NAME_RO":"Ban Pakkh\u00f4p"}},{"geometry":{"type":"Point","coordinates":[101.283333,17.816667]},"type":"Feature","properties":{"LAT":"17.816667","SHORT_FORM":"","LONG":"101.283333","FULL_NAME_RO":"Ban Pak Khem"}},{"geometry":{"type":"Point","coordinates":[102.394167,20.074444]},"type":"Feature","properties":{"LAT":"20.074444","SHORT_FORM":"","LONG":"102.394167","FULL_NAME_RO":"Ban Pakk\u00e8ng"}},{"geometry":{"type":"Point","coordinates":[102.983333,19.6]},"type":"Feature","properties":{"LAT":"19.6","SHORT_FORM":"","LONG":"102.983333","FULL_NAME_RO":"Ban Na Som"}},{"geometry":{"type":"Point","coordinates":[102.983333,19.6]},"type":"Feature","properties":{"LAT":"19.6","SHORT_FORM":"","LONG":"102.983333","FULL_NAME_RO":"Ban Si"}},{"geometry":{"type":"Point","coordinates":[102.338889,20.010278]},"type":"Feature","properties":{"LAT":"20.010278","SHORT_FORM":"","LONG":"102.338889","FULL_NAME_RO":"Ban Long Sa"}},{"geometry":{"type":"Point","coordinates":[102.338889,20.010278]},"type":"Feature","properties":{"LAT":"20.010278","SHORT_FORM":"","LONG":"102.338889","FULL_NAME_RO":"Ban S\u00e8nvo"}},{"geometry":{"type":"Point","coordinates":[103.1,19.283333]},"type":"Feature","properties":{"LAT":"19.283333","SHORT_FORM":"","LONG":"103.1","FULL_NAME_RO":"Ban Na Pia"}},{"geometry":{"type":"Point","coordinates":[103.1,19.283333]},"type":"Feature","properties":{"LAT":"19.283333","SHORT_FORM":"","LONG":"103.1","FULL_NAME_RO":"Ban Naphia"}},{"geometry":{"type":"Point","coordinates":[104.2,20.233333]},"type":"Feature","properties":{"LAT":"20.233333","SHORT_FORM":"","LONG":"104.2","FULL_NAME_RO":"Ban Na Phat"}},{"geometry":{"type":"Point","coordinates":[105.733333,17.583333]},"type":"Feature","properties":{"LAT":"17.583333","SHORT_FORM":"","LONG":"105.733333","FULL_NAME_RO":"Na Phao"}},{"geometry":{"type":"Point","coordinates":[105.733333,17.583333]},"type":"Feature","properties":{"LAT":"17.583333","SHORT_FORM":"","LONG":"105.733333","FULL_NAME_RO":"Ban Na Phao"}},{"geometry":{"type":"Point","coordinates":[104.443889,20.568889]},"type":"Feature","properties":{"LAT":"20.568889","SHORT_FORM":"","LONG":"104.443889","FULL_NAME_RO":"Ban Na Pham"}},{"geometry":{"type":"Point","coordinates":[104.443889,20.568889]},"type":"Feature","properties":{"LAT":"20.568889","SHORT_FORM":"","LONG":"104.443889","FULL_NAME_RO":"Ban Naphiang"}},{"geometry":{"type":"Point","coordinates":[102.543611,19.983056]},"type":"Feature","properties":{"LAT":"19.983056","SHORT_FORM":"","LONG":"102.543611","FULL_NAME_RO":"Ban Phong"}},{"geometry":{"type":"Point","coordinates":[102.733333,19.466667]},"type":"Feature","properties":{"LAT":"19.466667","SHORT_FORM":"","LONG":"102.733333","FULL_NAME_RO":"Ban Phong"}},{"geometry":{"type":"Point","coordinates":[105.833333,14.8]},"type":"Feature","properties":{"LAT":"14.8","SHORT_FORM":"","LONG":"105.833333","FULL_NAME_RO":"Ban Ph\u00f4ndou"}},{"geometry":{"type":"Point","coordinates":[105.833333,14.8]},"type":"Feature","properties":{"LAT":"14.8","SHORT_FORM":"","LONG":"105.833333","FULL_NAME_RO":"Ban Phone Dou"}},{"geometry":{"type":"Point","coordinates":[105.85,14.85]},"type":"Feature","properties":{"LAT":"14.85","SHORT_FORM":"","LONG":"105.85","FULL_NAME_RO":"Ban Phone Dou"}},{"geometry":{"type":"Point","coordinates":[105.85,14.85]},"type":"Feature","properties":{"LAT":"14.85","SHORT_FORM":"","LONG":"105.85","FULL_NAME_RO":"Ban Ph\u00f4ndou"}},{"geometry":{"type":"Point","coordinates":[100.708889,20.325556]},"type":"Feature","properties":{"LAT":"20.325556","SHORT_FORM":"","LONG":"100.708889","FULL_NAME_RO":"Nam Teo"}},{"geometry":{"type":"Point","coordinates":[100.708889,20.325556]},"type":"Feature","properties":{"LAT":"20.325556","SHORT_FORM":"","LONG":"100.708889","FULL_NAME_RO":"Ban Nam T\u00e9v"}},{"geometry":{"type":"Point","coordinates":[100.708889,20.325556]},"type":"Feature","properties":{"LAT":"20.325556","SHORT_FORM":"","LONG":"100.708889","FULL_NAME_RO":"Ban Nam Teo"}},{"geometry":{"type":"Point","coordinates":[103.8,19.2]},"type":"Feature","properties":{"LAT":"19.2","SHORT_FORM":"","LONG":"103.8","FULL_NAME_RO":"Ban Namsong"}},{"geometry":{"type":"Point","coordinates":[100.775,20.357222]},"type":"Feature","properties":{"LAT":"20.357222","SHORT_FORM":"","LONG":"100.775","FULL_NAME_RO":"Ban Mouk Tione"}},{"geometry":{"type":"Point","coordinates":[100.775,20.357222]},"type":"Feature","properties":{"LAT":"20.357222","SHORT_FORM":"","LONG":"100.775","FULL_NAME_RO":"Ban Mouktion"}},{"geometry":{"type":"Point","coordinates":[101.264167,20.258611]},"type":"Feature","properties":{"LAT":"20.258611","SHORT_FORM":"","LONG":"101.264167","FULL_NAME_RO":"Ban Moukkha"}},{"geometry":{"type":"Point","coordinates":[106.098611,17.143889]},"type":"Feature","properties":{"LAT":"17.143889","SHORT_FORM":"","LONG":"106.098611","FULL_NAME_RO":"Ban Nam Moun"}},{"geometry":{"type":"Point","coordinates":[106.098611,17.143889]},"type":"Feature","properties":{"LAT":"17.143889","SHORT_FORM":"","LONG":"106.098611","FULL_NAME_RO":"Ban Namoun"}},{"geometry":{"type":"Point","coordinates":[106.098611,17.143889]},"type":"Feature","properties":{"LAT":"17.143889","SHORT_FORM":"","LONG":"106.098611","FULL_NAME_RO":"Ban Mouk"}},{"geometry":{"type":"Point","coordinates":[102.180556,19.928056]},"type":"Feature","properties":{"LAT":"19.928056","SHORT_FORM":"","LONG":"102.180556","FULL_NAME_RO":"Ban Mouangkham"}},{"geometry":{"type":"Point","coordinates":[102.180556,19.928056]},"type":"Feature","properties":{"LAT":"19.928056","SHORT_FORM":"","LONG":"102.180556","FULL_NAME_RO":"Ban Muangkham"}},{"geometry":{"type":"Point","coordinates":[102.180556,19.928056]},"type":"Feature","properties":{"LAT":"19.928056","SHORT_FORM":"","LONG":"102.180556","FULL_NAME_RO":"Ban Muong Kham"}},{"geometry":{"type":"Point","coordinates":[103.505278,19.660556]},"type":"Feature","properties":{"LAT":"19.660556","SHORT_FORM":"","LONG":"103.505278","FULL_NAME_RO":"Ban Muong"}},{"geometry":{"type":"Point","coordinates":[103.505278,19.660556]},"type":"Feature","properties":{"LAT":"19.660556","SHORT_FORM":"","LONG":"103.505278","FULL_NAME_RO":"Ban Mouang"}},{"geometry":{"type":"Point","coordinates":[101.55,18.366667]},"type":"Feature","properties":{"LAT":"18.366667","SHORT_FORM":"","LONG":"101.55","FULL_NAME_RO":"Ban Muong"}},{"geometry":{"type":"Point","coordinates":[101.55,18.366667]},"type":"Feature","properties":{"LAT":"18.366667","SHORT_FORM":"","LONG":"101.55","FULL_NAME_RO":"Ban Movang"}},{"geometry":{"type":"Point","coordinates":[101.55,18.366667]},"type":"Feature","properties":{"LAT":"18.366667","SHORT_FORM":"","LONG":"101.55","FULL_NAME_RO":"Ban Mouong"}},{"geometry":{"type":"Point","coordinates":[101.55,18.366667]},"type":"Feature","properties":{"LAT":"18.366667","SHORT_FORM":"","LONG":"101.55","FULL_NAME_RO":"Ban Mouang"}},{"geometry":{"type":"Point","coordinates":[102.18,20.404167]},"type":"Feature","properties":{"LAT":"20.404167","SHORT_FORM":"","LONG":"102.18","FULL_NAME_RO":"Ban Sen Louong"}},{"geometry":{"type":"Point","coordinates":[102.18,20.404167]},"type":"Feature","properties":{"LAT":"20.404167","SHORT_FORM":"","LONG":"102.18","FULL_NAME_RO":"Ban S\u00e8nlouang"}},{"geometry":{"type":"Point","coordinates":[100.916667,19.833333]},"type":"Feature","properties":{"LAT":"19.833333","SHORT_FORM":"","LONG":"100.916667","FULL_NAME_RO":"Ban S\u00e8nlouang"}},{"geometry":{"type":"Point","coordinates":[101.951389,19.426667]},"type":"Feature","properties":{"LAT":"19.426667","SHORT_FORM":"","LONG":"101.951389","FULL_NAME_RO":"Ban S\u00e8nlouang"}},{"geometry":{"type":"Point","coordinates":[101.951389,19.426667]},"type":"Feature","properties":{"LAT":"19.426667","SHORT_FORM":"","LONG":"101.951389","FULL_NAME_RO":"Ban S\u00e8nlouang-Gnai"}},{"geometry":{"type":"Point","coordinates":[101.951389,19.426667]},"type":"Feature","properties":{"LAT":"19.426667","SHORT_FORM":"","LONG":"101.951389","FULL_NAME_RO":"Ban Sen Luong"}},{"geometry":{"type":"Point","coordinates":[107.366667,14.666667]},"type":"Feature","properties":{"LAT":"14.666667","SHORT_FORM":"","LONG":"107.366667","FULL_NAME_RO":"Sene Louang"}},{"geometry":{"type":"Point","coordinates":[107.366667,14.666667]},"type":"Feature","properties":{"LAT":"14.666667","SHORT_FORM":"","LONG":"107.366667","FULL_NAME_RO":"Ban S\u00e8nlouang"}},{"geometry":{"type":"Point","coordinates":[107.366667,14.666667]},"type":"Feature","properties":{"LAT":"14.666667","SHORT_FORM":"","LONG":"107.366667","FULL_NAME_RO":"Ban Sene Louang"}},{"geometry":{"type":"Point","coordinates":[107.366667,14.666667]},"type":"Feature","properties":{"LAT":"14.666667","SHORT_FORM":"","LONG":"107.366667","FULL_NAME_RO":"Bnan Senlouang"}},{"geometry":{"type":"Point","coordinates":[107.366667,14.666667]},"type":"Feature","properties":{"LAT":"14.666667","SHORT_FORM":"","LONG":"107.366667","FULL_NAME_RO":"Ban Sane Louang"}},{"geometry":{"type":"Point","coordinates":[101.109167,20.218056]},"type":"Feature","properties":{"LAT":"20.218056","SHORT_FORM":"","LONG":"101.109167","FULL_NAME_RO":"Ban Kheun"}},{"geometry":{"type":"Point","coordinates":[101.109167,20.218056]},"type":"Feature","properties":{"LAT":"20.218056","SHORT_FORM":"","LONG":"101.109167","FULL_NAME_RO":"Ban Keun"}},{"geometry":{"type":"Point","coordinates":[101.109167,20.218056]},"type":"Feature","properties":{"LAT":"20.218056","SHORT_FORM":"","LONG":"101.109167","FULL_NAME_RO":"Ban Kheum"}},{"geometry":{"type":"Point","coordinates":[101.109167,20.218056]},"type":"Feature","properties":{"LAT":"20.218056","SHORT_FORM":"","LONG":"101.109167","FULL_NAME_RO":"Ban Ken"}},{"geometry":{"type":"Point","coordinates":[101.788056,22.168611]},"type":"Feature","properties":{"LAT":"22.168611","SHORT_FORM":"","LONG":"101.788056","FULL_NAME_RO":"Ban Kheu"}},{"geometry":{"type":"Point","coordinates":[104.15,20.733333]},"type":"Feature","properties":{"LAT":"20.733333","SHORT_FORM":"","LONG":"104.15","FULL_NAME_RO":"Ban Kheo Ca Noi"}},{"geometry":{"type":"Point","coordinates":[103.966667,20.333333]},"type":"Feature","properties":{"LAT":"20.333333","SHORT_FORM":"","LONG":"103.966667","FULL_NAME_RO":"Ban Houei Linep"}},{"geometry":{"type":"Point","coordinates":[103.966667,20.333333]},"type":"Feature","properties":{"LAT":"20.333333","SHORT_FORM":"","LONG":"103.966667","FULL_NAME_RO":"Ban Houay Linep"}},{"geometry":{"type":"Point","coordinates":[104.816667,19.95]},"type":"Feature","properties":{"LAT":"19.95","SHORT_FORM":"","LONG":"104.816667","FULL_NAME_RO":"Ban Houei Linh"}},{"geometry":{"type":"Point","coordinates":[104.816667,19.95]},"type":"Feature","properties":{"LAT":"19.95","SHORT_FORM":"","LONG":"104.816667","FULL_NAME_RO":"Ban Houaylin"}},{"geometry":{"type":"Point","coordinates":[100.509722,19.764444]},"type":"Feature","properties":{"LAT":"19.764444","SHORT_FORM":"","LONG":"100.509722","FULL_NAME_RO":"Ban Houaylao"}},{"geometry":{"type":"Point","coordinates":[100.509722,19.764444]},"type":"Feature","properties":{"LAT":"19.764444","SHORT_FORM":"","LONG":"100.509722","FULL_NAME_RO":"Ban Houei Lao"}},{"geometry":{"type":"Point","coordinates":[102.029444,20.822222]},"type":"Feature","properties":{"LAT":"20.822222","SHORT_FORM":"","LONG":"102.029444","FULL_NAME_RO":"Ban Loungmiang"}},{"geometry":{"type":"Point","coordinates":[102.029444,20.822222]},"type":"Feature","properties":{"LAT":"20.822222","SHORT_FORM":"","LONG":"102.029444","FULL_NAME_RO":"Ban Hung Mieng"}},{"geometry":{"type":"Point","coordinates":[102.029444,20.822222]},"type":"Feature","properties":{"LAT":"20.822222","SHORT_FORM":"","LONG":"102.029444","FULL_NAME_RO":"Ban Louangmiang"}},{"geometry":{"type":"Point","coordinates":[104.5,19.633333]},"type":"Feature","properties":{"LAT":"19.633333","SHORT_FORM":"","LONG":"104.5","FULL_NAME_RO":"Ban Louang"}},{"geometry":{"type":"Point","coordinates":[104.5,19.633333]},"type":"Feature","properties":{"LAT":"19.633333","SHORT_FORM":"","LONG":"104.5","FULL_NAME_RO":"Ban Loung"}},{"geometry":{"type":"Point","coordinates":[103.222222,19.706389]},"type":"Feature","properties":{"LAT":"19.706389","SHORT_FORM":"","LONG":"103.222222","FULL_NAME_RO":"Ban Louang"}},{"geometry":{"type":"Point","coordinates":[103.222222,19.706389]},"type":"Feature","properties":{"LAT":"19.706389","SHORT_FORM":"","LONG":"103.222222","FULL_NAME_RO":"Ban Luang"}},{"geometry":{"type":"Point","coordinates":[103.283333,19.333333]},"type":"Feature","properties":{"LAT":"19.333333","SHORT_FORM":"","LONG":"103.283333","FULL_NAME_RO":"Ban Louo"}},{"geometry":{"type":"Point","coordinates":[103.283333,19.333333]},"type":"Feature","properties":{"LAT":"19.333333","SHORT_FORM":"","LONG":"103.283333","FULL_NAME_RO":"Ban Lou"}},{"geometry":{"type":"Point","coordinates":[101.934167,21.975833]},"type":"Feature","properties":{"LAT":"21.975833","SHORT_FORM":"","LONG":"101.934167","FULL_NAME_RO":"Lau Ma Chai"}},{"geometry":{"type":"Point","coordinates":[101.934167,21.975833]},"type":"Feature","properties":{"LAT":"21.975833","SHORT_FORM":"","LONG":"101.934167","FULL_NAME_RO":"Lai Ma Chai"}},{"geometry":{"type":"Point","coordinates":[101.934167,21.975833]},"type":"Feature","properties":{"LAT":"21.975833","SHORT_FORM":"","LONG":"101.934167","FULL_NAME_RO":"Ban Laomachai"}},{"geometry":{"type":"Point","coordinates":[103.069167,20.355]},"type":"Feature","properties":{"LAT":"20.355","SHORT_FORM":"","LONG":"103.069167","FULL_NAME_RO":"Pak-Lao"}},{"geometry":{"type":"Point","coordinates":[103.069167,20.355]},"type":"Feature","properties":{"LAT":"20.355","SHORT_FORM":"","LONG":"103.069167","FULL_NAME_RO":"Ban Paklao"}},{"geometry":{"type":"Point","coordinates":[102.115,20.869722]},"type":"Feature","properties":{"LAT":"20.869722","SHORT_FORM":"","LONG":"102.115","FULL_NAME_RO":"Ban Pakla"}},{"geometry":{"type":"Point","coordinates":[102.115,20.869722]},"type":"Feature","properties":{"LAT":"20.869722","SHORT_FORM":"","LONG":"102.115","FULL_NAME_RO":"Pak-La"}},{"geometry":{"type":"Point","coordinates":[101.829167,21.994722]},"type":"Feature","properties":{"LAT":"21.994722","SHORT_FORM":"","LONG":"101.829167","FULL_NAME_RO":"Phoun Y\u00e9 Fan"}},{"geometry":{"type":"Point","coordinates":[101.829167,21.994722]},"type":"Feature","properties":{"LAT":"21.994722","SHORT_FORM":"","LONG":"101.829167","FULL_NAME_RO":"Ban Phouny\u00e9fan"}},{"geometry":{"type":"Point","coordinates":[104.666667,20.016667]},"type":"Feature","properties":{"LAT":"20.016667","SHORT_FORM":"","LONG":"104.666667","FULL_NAME_RO":"Phou Nhin"}},{"geometry":{"type":"Point","coordinates":[101.6275,22.255556]},"type":"Feature","properties":{"LAT":"22.255556","SHORT_FORM":"","LONG":"101.6275","FULL_NAME_RO":"Phou Neua"}},{"geometry":{"type":"Point","coordinates":[101.6275,22.255556]},"type":"Feature","properties":{"LAT":"22.255556","SHORT_FORM":"","LONG":"101.6275","FULL_NAME_RO":"Ban Phou-Nua"}},{"geometry":{"type":"Point","coordinates":[102.231944,21.587778]},"type":"Feature","properties":{"LAT":"21.587778","SHORT_FORM":"","LONG":"102.231944","FULL_NAME_RO":"Phu Mon"}},{"geometry":{"type":"Point","coordinates":[102.231944,21.587778]},"type":"Feature","properties":{"LAT":"21.587778","SHORT_FORM":"","LONG":"102.231944","FULL_NAME_RO":"Phou M\u00f4n"}},{"geometry":{"type":"Point","coordinates":[102.231944,21.587778]},"type":"Feature","properties":{"LAT":"21.587778","SHORT_FORM":"","LONG":"102.231944","FULL_NAME_RO":"Ban Phoumon"}},{"geometry":{"type":"Point","coordinates":[102.231944,21.587778]},"type":"Feature","properties":{"LAT":"21.587778","SHORT_FORM":"","LONG":"102.231944","FULL_NAME_RO":"P\u2019u M\u00f4n"}},{"geometry":{"type":"Point","coordinates":[101.7625,21.875278]},"type":"Feature","properties":{"LAT":"21.875278","SHORT_FORM":"","LONG":"101.7625","FULL_NAME_RO":"Selaoutya"}},{"geometry":{"type":"Point","coordinates":[101.7625,21.875278]},"type":"Feature","properties":{"LAT":"21.875278","SHORT_FORM":"","LONG":"101.7625","FULL_NAME_RO":"Ban Salaoutya"}},{"geometry":{"type":"Point","coordinates":[102.668333,20.166111]},"type":"Feature","properties":{"LAT":"20.166111","SHORT_FORM":"","LONG":"102.668333","FULL_NAME_RO":"Muang Pak-X\u00e8ng"}},{"geometry":{"type":"Point","coordinates":[102.668333,20.166111]},"type":"Feature","properties":{"LAT":"20.166111","SHORT_FORM":"","LONG":"102.668333","FULL_NAME_RO":"Pakx\u00e8ng"}},{"geometry":{"type":"Point","coordinates":[102.668333,20.166111]},"type":"Feature","properties":{"LAT":"20.166111","SHORT_FORM":"","LONG":"102.668333","FULL_NAME_RO":"Pak Seng"}},{"geometry":{"type":"Point","coordinates":[102.668333,20.166111]},"type":"Feature","properties":{"LAT":"20.166111","SHORT_FORM":"","LONG":"102.668333","FULL_NAME_RO":"Ban Pakx\u00e8ng"}},{"geometry":{"type":"Point","coordinates":[105.783333,15.116667]},"type":"Feature","properties":{"LAT":"15.116667","SHORT_FORM":"","LONG":"105.783333","FULL_NAME_RO":"Pakx\u00e9"}},{"geometry":{"type":"Point","coordinates":[105.783333,15.116667]},"type":"Feature","properties":{"LAT":"15.116667","SHORT_FORM":"","LONG":"105.783333","FULL_NAME_RO":"Paks\u00e9"}},{"geometry":{"type":"Point","coordinates":[102.272222,21.704167]},"type":"Feature","properties":{"LAT":"21.704167","SHORT_FORM":"","LONG":"102.272222","FULL_NAME_RO":"Sen Su Kha"}},{"geometry":{"type":"Point","coordinates":[102.272222,21.704167]},"type":"Feature","properties":{"LAT":"21.704167","SHORT_FORM":"","LONG":"102.272222","FULL_NAME_RO":"Sen Su Khu"}},{"geometry":{"type":"Point","coordinates":[102.272222,21.704167]},"type":"Feature","properties":{"LAT":"21.704167","SHORT_FORM":"","LONG":"102.272222","FULL_NAME_RO":"Ban S\u00e8nsoukkha"}},{"geometry":{"type":"Point","coordinates":[103.8,19.216667]},"type":"Feature","properties":{"LAT":"19.216667","SHORT_FORM":"","LONG":"103.8","FULL_NAME_RO":"Ban Phoungiou"}},{"geometry":{"type":"Point","coordinates":[106.377778,16.487778]},"type":"Feature","properties":{"LAT":"16.487778","SHORT_FORM":"","LONG":"106.377778","FULL_NAME_RO":"Ban Phoune"}},{"geometry":{"type":"Point","coordinates":[106.377778,16.487778]},"type":"Feature","properties":{"LAT":"16.487778","SHORT_FORM":"","LONG":"106.377778","FULL_NAME_RO":"Ban Phoun"}},{"geometry":{"type":"Point","coordinates":[102.161944,19.905278]},"type":"Feature","properties":{"LAT":"19.905278","SHORT_FORM":"","LONG":"102.161944","FULL_NAME_RO":"Ban Phoumuat"}},{"geometry":{"type":"Point","coordinates":[102.161944,19.905278]},"type":"Feature","properties":{"LAT":"19.905278","SHORT_FORM":"","LONG":"102.161944","FULL_NAME_RO":"Ban Phoumuan"}},{"geometry":{"type":"Point","coordinates":[102.161944,19.905278]},"type":"Feature","properties":{"LAT":"19.905278","SHORT_FORM":"","LONG":"102.161944","FULL_NAME_RO":"Ban Phou Meuat"}},{"geometry":{"type":"Point","coordinates":[102.534167,20.081389]},"type":"Feature","properties":{"LAT":"20.081389","SHORT_FORM":"","LONG":"102.534167","FULL_NAME_RO":"Ban Phoumok"}},{"geometry":{"type":"Point","coordinates":[103.766667,19.35]},"type":"Feature","properties":{"LAT":"19.35","SHORT_FORM":"","LONG":"103.766667","FULL_NAME_RO":"Ban Phou Ma"}},{"geometry":{"type":"Point","coordinates":[103.766667,19.35]},"type":"Feature","properties":{"LAT":"19.35","SHORT_FORM":"","LONG":"103.766667","FULL_NAME_RO":"Ban Phoumak"}},{"geometry":{"type":"Point","coordinates":[104.35,20.466667]},"type":"Feature","properties":{"LAT":"20.466667","SHORT_FORM":"","LONG":"104.35","FULL_NAME_RO":"Ban Phou L\u00f4m"}},{"geometry":{"type":"Point","coordinates":[103.735833,20.080833]},"type":"Feature","properties":{"LAT":"20.080833","SHORT_FORM":"","LONG":"103.735833","FULL_NAME_RO":"Ban Phoulao"}},{"geometry":{"type":"Point","coordinates":[101.893056,19.395]},"type":"Feature","properties":{"LAT":"19.395","SHORT_FORM":"","LONG":"101.893056","FULL_NAME_RO":"Ban Paksan"}},{"geometry":{"type":"Point","coordinates":[105.766667,15.05]},"type":"Feature","properties":{"LAT":"15.05","SHORT_FORM":"Ban Songkhon","LONG":"105.766667","FULL_NAME_RO":"Ban Songkhon (2)"}},{"geometry":{"type":"Point","coordinates":[105.766667,15.05]},"type":"Feature","properties":{"LAT":"15.05","SHORT_FORM":"","LONG":"105.766667","FULL_NAME_RO":"Ban Nong To"}},{"geometry":{"type":"Point","coordinates":[105.766667,15.05]},"type":"Feature","properties":{"LAT":"15.05","SHORT_FORM":"","LONG":"105.766667","FULL_NAME_RO":"Ban Nong T\u00e8"}},{"geometry":{"type":"Point","coordinates":[103.1,19.65]},"type":"Feature","properties":{"LAT":"19.65","SHORT_FORM":"Ban Songhak","LONG":"103.1","FULL_NAME_RO":"Ban Songhak (1)"}},{"geometry":{"type":"Point","coordinates":[103.1,19.65]},"type":"Feature","properties":{"LAT":"19.65","SHORT_FORM":"","LONG":"103.1","FULL_NAME_RO":"Ban Sang Hak"}},{"geometry":{"type":"Point","coordinates":[103.1,19.65]},"type":"Feature","properties":{"LAT":"19.65","SHORT_FORM":"","LONG":"103.1","FULL_NAME_RO":"Ban Sang"}},{"geometry":{"type":"Point","coordinates":[103.1,19.45]},"type":"Feature","properties":{"LAT":"19.45","SHORT_FORM":"","LONG":"103.1","FULL_NAME_RO":"Ban Sonn"}},{"geometry":{"type":"Point","coordinates":[103.1,19.45]},"type":"Feature","properties":{"LAT":"19.45","SHORT_FORM":"","LONG":"103.1","FULL_NAME_RO":"Ban Son"}},{"geometry":{"type":"Point","coordinates":[103.316667,19.65]},"type":"Feature","properties":{"LAT":"19.65","SHORT_FORM":"Ban Naph\u00f4n","LONG":"103.316667","FULL_NAME_RO":"Ban Naph\u00f4n (1)"}},{"geometry":{"type":"Point","coordinates":[103.316667,19.65]},"type":"Feature","properties":{"LAT":"19.65","SHORT_FORM":"","LONG":"103.316667","FULL_NAME_RO":"Ban Na Pon"}},{"geometry":{"type":"Point","coordinates":[105.75,15.033333]},"type":"Feature","properties":{"LAT":"15.033333","SHORT_FORM":"","LONG":"105.75","FULL_NAME_RO":"Ban Ph\u00f4n Noy"}},{"geometry":{"type":"Point","coordinates":[105.75,15.033333]},"type":"Feature","properties":{"LAT":"15.033333","SHORT_FORM":"","LONG":"105.75","FULL_NAME_RO":"Ban Phon Noi"}},{"geometry":{"type":"Point","coordinates":[104.539722,18.165833]},"type":"Feature","properties":{"LAT":"18.165833","SHORT_FORM":"","LONG":"104.539722","FULL_NAME_RO":"Ban Ph\u00f4nkho"}},{"geometry":{"type":"Point","coordinates":[104.539722,18.165833]},"type":"Feature","properties":{"LAT":"18.165833","SHORT_FORM":"","LONG":"104.539722","FULL_NAME_RO":"Ban Ph\u00f4nngam"}},{"geometry":{"type":"Point","coordinates":[104.2,20.766667]},"type":"Feature","properties":{"LAT":"20.766667","SHORT_FORM":"","LONG":"104.2","FULL_NAME_RO":"Ban On"}},{"geometry":{"type":"Point","coordinates":[103.683333,20.233333]},"type":"Feature","properties":{"LAT":"20.233333","SHORT_FORM":"","LONG":"103.683333","FULL_NAME_RO":"Ban Nouei Na"}},{"geometry":{"type":"Point","coordinates":[103.683333,20.233333]},"type":"Feature","properties":{"LAT":"20.233333","SHORT_FORM":"","LONG":"103.683333","FULL_NAME_RO":"Ban Houei Na"}},{"geometry":{"type":"Point","coordinates":[103.683333,20.233333]},"type":"Feature","properties":{"LAT":"20.233333","SHORT_FORM":"","LONG":"103.683333","FULL_NAME_RO":"Ban Houayna"}},{"geometry":{"type":"Point","coordinates":[103.833333,20.166667]},"type":"Feature","properties":{"LAT":"20.166667","SHORT_FORM":"","LONG":"103.833333","FULL_NAME_RO":"Ban Houay Na"}},{"geometry":{"type":"Point","coordinates":[103.833333,20.166667]},"type":"Feature","properties":{"LAT":"20.166667","SHORT_FORM":"","LONG":"103.833333","FULL_NAME_RO":"Ban Houe\u00ef Na"}},{"geometry":{"type":"Point","coordinates":[103.833333,20.166667]},"type":"Feature","properties":{"LAT":"20.166667","SHORT_FORM":"","LONG":"103.833333","FULL_NAME_RO":"Na Ngou"}},{"geometry":{"type":"Point","coordinates":[105.883333,14.833333]},"type":"Feature","properties":{"LAT":"14.833333","SHORT_FORM":"Ban Donkao","LONG":"105.883333","FULL_NAME_RO":"Ban Donkao (2)"}},{"geometry":{"type":"Point","coordinates":[105.883333,14.833333]},"type":"Feature","properties":{"LAT":"14.833333","SHORT_FORM":"","LONG":"105.883333","FULL_NAME_RO":"Ban Kao"}},{"geometry":{"type":"Point","coordinates":[105.866667,14.85]},"type":"Feature","properties":{"LAT":"14.85","SHORT_FORM":"","LONG":"105.866667","FULL_NAME_RO":"Ban Done Kao"}},{"geometry":{"type":"Point","coordinates":[105.866667,14.85]},"type":"Feature","properties":{"LAT":"14.85","SHORT_FORM":"Ban Donkao","LONG":"105.866667","FULL_NAME_RO":"Ban Donkao (1)"}},{"geometry":{"type":"Point","coordinates":[103.166667,19.3]},"type":"Feature","properties":{"LAT":"19.3","SHORT_FORM":"","LONG":"103.166667","FULL_NAME_RO":"Ban Nangam"}},{"geometry":{"type":"Point","coordinates":[101.366667,18.083333]},"type":"Feature","properties":{"LAT":"18.083333","SHORT_FORM":"","LONG":"101.366667","FULL_NAME_RO":"Ban Na Nep"}},{"geometry":{"type":"Point","coordinates":[104.093889,20.396944]},"type":"Feature","properties":{"LAT":"20.396944","SHORT_FORM":"","LONG":"104.093889","FULL_NAME_RO":"Ban Namyat"}},{"geometry":{"type":"Point","coordinates":[103.233333,19.633333]},"type":"Feature","properties":{"LAT":"19.633333","SHORT_FORM":"","LONG":"103.233333","FULL_NAME_RO":"Ban Mon"}},{"geometry":{"type":"Point","coordinates":[101.96,20.066389]},"type":"Feature","properties":{"LAT":"20.066389","SHORT_FORM":"Ban M\u00f4ksouk","LONG":"101.96","FULL_NAME_RO":"Ban M\u00f4ksouk (2)"}},{"geometry":{"type":"Point","coordinates":[101.96,20.066389]},"type":"Feature","properties":{"LAT":"20.066389","SHORT_FORM":"","LONG":"101.96","FULL_NAME_RO":"Ban M\u00f4ksouk"}},{"geometry":{"type":"Point","coordinates":[102.151944,20.126944]},"type":"Feature","properties":{"LAT":"20.126944","SHORT_FORM":"","LONG":"102.151944","FULL_NAME_RO":"Ban M\u00f4kprai"}},{"geometry":{"type":"Point","coordinates":[102.151944,20.126944]},"type":"Feature","properties":{"LAT":"20.126944","SHORT_FORM":"","LONG":"102.151944","FULL_NAME_RO":"Ban Mokplai"}},{"geometry":{"type":"Point","coordinates":[102.101944,20.171944]},"type":"Feature","properties":{"LAT":"20.171944","SHORT_FORM":"","LONG":"102.101944","FULL_NAME_RO":"Ban Mok La Vane"}},{"geometry":{"type":"Point","coordinates":[102.101944,20.171944]},"type":"Feature","properties":{"LAT":"20.171944","SHORT_FORM":"","LONG":"102.101944","FULL_NAME_RO":"Ban M\u00f4klavan"}},{"geometry":{"type":"Point","coordinates":[102.171389,20.163889]},"type":"Feature","properties":{"LAT":"20.163889","SHORT_FORM":"","LONG":"102.171389","FULL_NAME_RO":"Ban M\u00f4kk\u00f4k"}},{"geometry":{"type":"Point","coordinates":[103.8,20.483333]},"type":"Feature","properties":{"LAT":"20.483333","SHORT_FORM":"","LONG":"103.8","FULL_NAME_RO":"Bam S\u00e8n Sam"}},{"geometry":{"type":"Point","coordinates":[103.8,20.483333]},"type":"Feature","properties":{"LAT":"20.483333","SHORT_FORM":"","LONG":"103.8","FULL_NAME_RO":"Ban S\u00e8n som"}},{"geometry":{"type":"Point","coordinates":[102.0275,19.464167]},"type":"Feature","properties":{"LAT":"19.464167","SHORT_FORM":"","LONG":"102.0275","FULL_NAME_RO":"Ban S\u00e8nsi"}},{"geometry":{"type":"Point","coordinates":[105.616667,15.233333]},"type":"Feature","properties":{"LAT":"15.233333","SHORT_FORM":"","LONG":"105.616667","FULL_NAME_RO":"Ban Khong Kong"}},{"geometry":{"type":"Point","coordinates":[105.616667,15.233333]},"type":"Feature","properties":{"LAT":"15.233333","SHORT_FORM":"","LONG":"105.616667","FULL_NAME_RO":"Ban Kh\u00f4kkong"}},{"geometry":{"type":"Point","coordinates":[104.7,19.95]},"type":"Feature","properties":{"LAT":"19.95","SHORT_FORM":"","LONG":"104.7","FULL_NAME_RO":"Ban Khokkhan"}},{"geometry":{"type":"Point","coordinates":[102.160833,20.086944]},"type":"Feature","properties":{"LAT":"20.086944","SHORT_FORM":"","LONG":"102.160833","FULL_NAME_RO":"Ban Khok Khan"}},{"geometry":{"type":"Point","coordinates":[102.160833,20.086944]},"type":"Feature","properties":{"LAT":"20.086944","SHORT_FORM":"","LONG":"102.160833","FULL_NAME_RO":"Ban Kh\u00f4kkham"}},{"geometry":{"type":"Point","coordinates":[101.618611,19.836667]},"type":"Feature","properties":{"LAT":"19.836667","SHORT_FORM":"","LONG":"101.618611","FULL_NAME_RO":"Ban Kh\u00f4k-Ek"}},{"geometry":{"type":"Point","coordinates":[101.618611,19.836667]},"type":"Feature","properties":{"LAT":"19.836667","SHORT_FORM":"","LONG":"101.618611","FULL_NAME_RO":"Ban Kok Ek"}},{"geometry":{"type":"Point","coordinates":[105.8,15.983333]},"type":"Feature","properties":{"LAT":"15.983333","SHORT_FORM":"","LONG":"105.8","FULL_NAME_RO":"Houei Moen"}},{"geometry":{"type":"Point","coordinates":[105.8,15.983333]},"type":"Feature","properties":{"LAT":"15.983333","SHORT_FORM":"","LONG":"105.8","FULL_NAME_RO":"Ban Houaymun"}},{"geometry":{"type":"Point","coordinates":[105.8,15.983333]},"type":"Feature","properties":{"LAT":"15.983333","SHORT_FORM":"","LONG":"105.8","FULL_NAME_RO":"Ban Houei Mun"}},{"geometry":{"type":"Point","coordinates":[105.8,15.983333]},"type":"Feature","properties":{"LAT":"15.983333","SHORT_FORM":"","LONG":"105.8","FULL_NAME_RO":"Houei Mun"}},{"geometry":{"type":"Point","coordinates":[102.8575,20.040556]},"type":"Feature","properties":{"LAT":"20.040556","SHORT_FORM":"","LONG":"102.8575","FULL_NAME_RO":"Ban Houaymuang"}},{"geometry":{"type":"Point","coordinates":[102.8575,20.040556]},"type":"Feature","properties":{"LAT":"20.040556","SHORT_FORM":"","LONG":"102.8575","FULL_NAME_RO":"Ban Houei Muong"}},{"geometry":{"type":"Point","coordinates":[102.85,19.266667]},"type":"Feature","properties":{"LAT":"19.266667","SHORT_FORM":"","LONG":"102.85","FULL_NAME_RO":"Ban Houei Moua"}},{"geometry":{"type":"Point","coordinates":[102.85,19.266667]},"type":"Feature","properties":{"LAT":"19.266667","SHORT_FORM":"","LONG":"102.85","FULL_NAME_RO":"Ban Houaymoua"}},{"geometry":{"type":"Point","coordinates":[103.966667,20.0]},"type":"Feature","properties":{"LAT":"20","SHORT_FORM":"","LONG":"103.966667","FULL_NAME_RO":"Ban Mai Nhan"}},{"geometry":{"type":"Point","coordinates":[102.058333,20.729167]},"type":"Feature","properties":{"LAT":"20.729167","SHORT_FORM":"","LONG":"102.058333","FULL_NAME_RO":"Ban Mai"}},{"geometry":{"type":"Point","coordinates":[102.058333,20.729167]},"type":"Feature","properties":{"LAT":"20.729167","SHORT_FORM":"","LONG":"102.058333","FULL_NAME_RO":"Ban Meu"}},{"geometry":{"type":"Point","coordinates":[102.058333,20.729167]},"type":"Feature","properties":{"LAT":"20.729167","SHORT_FORM":"","LONG":"102.058333","FULL_NAME_RO":"Ban Khang"}},{"geometry":{"type":"Point","coordinates":[105.883333,14.733333]},"type":"Feature","properties":{"LAT":"14.733333","SHORT_FORM":"","LONG":"105.883333","FULL_NAME_RO":"Ban D\u00f4ngk\u00e8m"}},{"geometry":{"type":"Point","coordinates":[100.8,19.866667]},"type":"Feature","properties":{"LAT":"19.866667","SHORT_FORM":"Ban Khamou","LONG":"100.8","FULL_NAME_RO":"Ban Khamou (2)"}},{"geometry":{"type":"Point","coordinates":[100.8,19.866667]},"type":"Feature","properties":{"LAT":"19.866667","SHORT_FORM":"","LONG":"100.8","FULL_NAME_RO":"Ban Kamu"}},{"geometry":{"type":"Point","coordinates":[100.8,19.866667]},"type":"Feature","properties":{"LAT":"19.866667","SHORT_FORM":"","LONG":"100.8","FULL_NAME_RO":"Ban Khmou"}},{"geometry":{"type":"Point","coordinates":[105.8,14.716667]},"type":"Feature","properties":{"LAT":"14.716667","SHORT_FORM":"","LONG":"105.8","FULL_NAME_RO":"Ban Khammakkhua"}},{"geometry":{"type":"Point","coordinates":[105.8,14.716667]},"type":"Feature","properties":{"LAT":"14.716667","SHORT_FORM":"","LONG":"105.8","FULL_NAME_RO":"Ban Kham Makhua"}},{"geometry":{"type":"Point","coordinates":[103.566667,20.583333]},"type":"Feature","properties":{"LAT":"20.583333","SHORT_FORM":"","LONG":"103.566667","FULL_NAME_RO":"Ban Houei Hon"}},{"geometry":{"type":"Point","coordinates":[103.566667,20.583333]},"type":"Feature","properties":{"LAT":"20.583333","SHORT_FORM":"","LONG":"103.566667","FULL_NAME_RO":"Ban Houayh\u00f4ng"}},{"geometry":{"type":"Point","coordinates":[103.566667,20.583333]},"type":"Feature","properties":{"LAT":"20.583333","SHORT_FORM":"","LONG":"103.566667","FULL_NAME_RO":"Ban Houei Son"}},{"geometry":{"type":"Point","coordinates":[106.132222,17.0425]},"type":"Feature","properties":{"LAT":"17.0425","SHORT_FORM":"","LONG":"106.132222","FULL_NAME_RO":"Ban Houei Hong"}},{"geometry":{"type":"Point","coordinates":[106.132222,17.0425]},